@id,@lon,@lat,name,opening_hours,website,addr:street
252214031,2.3770736,48.8525251,Distribution,,,
319538855,2.2788325,48.9908081,,,,Avenue Jeanne d'Arc
320799890,2.3523701,48.8574313,Springfield,,,
388217216,2.4056742,48.8536031,Esprit Démarque,,,
408946638,2.3357724,48.8865646,Thibault van der Straete,,,
408947922,2.3400366,48.8846254,Spree,,,
428037464,2.3857278,48.8470541,Exquise,Mo-Sa 13:00-19:30,,
508588008,2.3861179,48.8470868,Tati,Mo-Sa 10:00-19:30,,
578524351,2.2587744,48.9889135,La Belle Histoire,Tu  Th-Fr 10:00-13:00  14:30-19:30; We 09:30-13:00  14:30-19:30; Sa 09:30-19:30,,
578524352,2.2589989,48.9889488,Exclusive,Tu  Th-Fr 10:00-13:00  15:00-19:30; We  Sa 09:30-13:00  14:30-19:30,,
582268946,2.2596858,48.9898768,Chez Raphael,Tu-Sa 10:00-13:00  14:00-19:00,,
582752850,2.2573881,48.9868940,Fali,,,
582752885,2.2584533,48.9885035,Punt Roma,,,
597489197,2.2572341,48.9894432,Iris,,,
605054271,2.1957633,48.8924138,Hom's,Tu-Sa 09:30-19:00; Su 09:30-13:00,,
648530131,2.1958129,48.8945687,Camaïeu,Mo 10:00-19:30; Tu-Sa 09:00-19:30,,
648530134,2.1957893,48.8944908,Bréal,Mo-Sa 10:00-19:30,,Rue Maurice Thorez
661987331,2.1956571,48.8931439,Ever In,Tu-Sa 10:15-13:30 14:45-19:45,,
664799893,2.2798435,48.8274055,Id Lis,,,
667526185,2.2796010,48.8270507,Didier Espaces d'Hommes,,http://www.didier-espaces-dhommes.fr,
669075493,2.2977548,48.8378084,Jacadi Convention,,,
669075503,2.2981616,48.8380430,Etam Lingerie Convention,,,
669075520,2.2983174,48.8381304,Marlina,,,
669075521,2.2983585,48.8381491,Petit Bateau Convention,,,
670975081,2.2556360,48.9641292,,,,
670975085,2.2558387,48.9640739,Everwood,,,
670975090,2.2559590,48.9645513,Okaïdi,,,
670975100,2.2558771,48.9647827,Riu Paris,,,
674211606,2.2985650,48.8385165,Princesse tam.tam,Tu-Sa 10:30-19:00; Mo 14:00-19:00,,
676872574,2.3468228,48.8588564,Celio Club,,,Rue de Rivoli
676872596,2.3469629,48.8588111,Undiz,,,Rue de Rivoli
676872603,2.3465099,48.8589580,Yves Dorset,,,Rue de Rivoli
677967628,2.3482061,48.8599057,Tcha Tcha,,http://www.tchatcha-paris.com/,Rue Saint-Denis
680443043,2.3485485,48.8609341,Adidas Football,,,
680443108,2.3492718,48.8622727,Bleach Vintage,,,
682258926,2.3350272,48.8648148,Antoine,,,Avenue de l'Opéra
682402913,2.2961270,48.8474053,Kujten,,,Rue du Commerce
682420386,2.2843378,48.8473799,LodinG,,,Rue Linois
683264837,2.3298418,48.8659060,Paul Smith,,,Rue Saint-Honoré
683328230,2.3253018,48.8660444,51 Montaigne,,,Rue de Rivoli
683328243,2.3254933,48.8664982,Yohji Yamamoto,24/7,,Rue Cambon
683328423,2.3267836,48.8655636,Theo Fil,,,Rue de Rivoli
683386801,2.3243635,48.8663480,Hilditch and Key,,,Rue de Rivoli
689346689,2.3431884,48.8665607,Jonas et Cie (Jean-Claude et Laurent Touboul),,,Rue d'Aboukir
691614074,2.3498840,48.8646955,Duke Store,Tu-Sa 10:00-19:00,http://dukestoreparis.com,Passage du Grand-Cerf
702750651,2.3578569,48.8585043,Lolë,,,Rue des Blancs-Manteaux
703432519,2.3613828,48.8561253,L'éclaireur,,,Rue Malher
704814548,2.1678680,48.9915820,Satin Rose,Mo Tu Th-Su 09:30-12:30 14:30-19:00; We 14:30-19:00,,
708424286,2.3414672,48.8519697,Boggi Milano,,https://shop.boggi.com/,
708981028,2.3550387,48.8607828,Maurices,,,Rue Rambuteau
713469122,2.3629937,48.8633027,Pauline Pin,,,Rue Charlot
725258706,2.1681650,48.9915650,Retoucherie Herblay,,,
727779864,2.3252187,48.8455348,Zara,,,
728309971,2.3304826,48.8542445,Sonia Rykiel,,,Boulevard Saint-Germain
729805498,2.3557903,48.8584326,Scalpers,,,
777381495,2.3314238,48.8021081,Dany Vêtements,,,
786137283,2.2420303,48.8352491,Sajesse,,,
794159416,2.2438137,48.8328544,Angela Morlant,,,
794159530,2.2428582,48.8318060,Le Curling,,,
802009530,2.2414879,48.8369478,Cyrillus,Mo-Sa 10:00-19:30,,Boulevard Jean Jaurès
805954550,2.3337314,48.8522594,Paul Marius,,,Rue des Canettes
806011013,2.3364184,48.8524520,Uniqlo,Mo-Sa 10:00-20:00,,Rue Clément
806011349,2.3368360,48.8520737,Natalys,,,Rue Toustain
813269011,2.2557391,48.9238827,Orizane,,,
813890202,2.3111625,48.8697396,Hayari Couture,,www.hayari-couture.com,Avenue Matignon
820096071,2.2578720,48.9238362,Mômes Chics,,,
820603982,2.2441448,48.8342460,Jacadi,,,
821320859,2.2571675,48.9238726,Rien Que Pour Eux,,,
821320872,2.2569019,48.9238814,Saltel,,,
821320885,2.2570613,48.9238761,City 55,,,
821320897,2.2570081,48.9238779,Antonelle,,,
821632353,2.2561062,48.9238761,Caroll,,,
823756168,2.2542776,48.9239558,Fantasia,,,
823756178,2.2544003,48.9238554,Du Pareil au Même,,,
823756181,2.2547346,48.9238346,Rebel's,,,
823756182,2.2554937,48.9238008,Mary Kimberley,,,
823756189,2.2549496,48.9238194,Camaïeu,,,
823756225,2.2548748,48.9239142,Okaïdi,,,
823756231,2.2532475,48.9240235,Z,,,
823756232,2.2552541,48.9238130,Jules,,,
823756241,2.2546488,48.9238393,Ciel Bleu,,,
826015292,2.2426583,48.8353802,Petit-Bateau,,,
827328844,2.2395850,48.8398786,Natalys,,,
840652414,2.3086072,48.8698327,Quiksilver,,,Avenue des Champs-Élysées
842127433,2.3226346,48.8678248,Issey Miyake,,,Rue Royale
843477423,2.3080591,48.8700294,Gap,,,
843477430,2.3075793,48.8701840,Zara,,,
844504811,2.3505891,48.8381274,Jacadi,,,
847215760,2.3511497,48.8383094,Calzedonia,,,Avenue des Gobelins
847219254,2.3514064,48.8379964,Monoprix,Mo-Sa 09:00-20:00,,
847225985,2.3515865,48.8377365,Monoprix,Mo-Sa 09:00-20:00,,
882356163,2.2433823,48.8340753,Pimkie,,,
882356178,2.2406547,48.8323527,Morgane Diffusion,,,
885690704,2.1959762,48.8901270,Du Pareil au Même,Mo-Sa 10:00-19:00,http://www.dpam.com/,
885690707,2.1958611,48.8901216,Sergent Major,Mo 15:00-19:00; Tu-Sa 10:00-19:00; Su 09:30-13:00,,
892853462,2.2434480,48.8339588,Mary Kimberley,Mo 14:00-19:00; Tu-Sa 10:00-19:00,,
912271897,2.3498203,48.8829360,Au Rendez-vous du Mariage,,,
913577799,2.3772286,48.8305832,Camaïeu,Mo-Sa 10:00-20:00,,
914052530,2.3111868,48.8599984,J. Donegan,Tu-Su 11:00-14:00  15:00-19:00,https://www.donegan.fr/,Rue Saint-Dominique
915959129,2.1918691,48.8911725,Sultana,,,
916527542,2.3484032,48.8837914,Tati,Mo-Fr 10:00-20:00  Sa 09:30-20:00,,
916720793,2.3623932,48.8785722,Bragard,Mo-Fr 09:30-12:00 13:30-17:30; Sa 09:30-12:00 13:30-16:45,http://www.bragard.fr,
917299936,2.3656339,48.8813014,Mademoiselle Claverie,,,
922525946,2.2428499,48.8350181,Darjeeling,,,
922525949,2.2430130,48.8342649,Etam,,,
922525968,2.2428995,48.8349302,Naf Naf,,,
922525998,2.2430877,48.8345970,Promod,,,
922526001,2.2430540,48.8346568,Kookaï,,,
922526012,2.2428136,48.8350827,Caroll,,,
931681725,2.2423582,48.8358859,Father & Sons,,,
931681727,2.2421667,48.8362248,Devernois,,,
931681734,2.2420016,48.8360515,Biscote,Mo-Sa 10:30-19:30,,
931681737,2.2419152,48.8362036,Courbettes et Galipettes,Tu-Sa 11:00-19:30; Mo 11:30-19:30,,
931681744,2.2422110,48.8361463,The Kooples,,,
931681745,2.2422476,48.8360817,Celio,,,
931681746,2.2422117,48.8356844,La Reserve,,,
931681747,2.2422975,48.8359935,Lynn Adler,,,
937614721,2.2416519,48.8366675,Kujten,,,
937614723,2.2419422,48.8366220,Gérard Darel,Mo-Fr 10:00-19:00; Sa 10:00-19:30,,
937614727,2.2418670,48.8362893,Berenice,,,
937614728,2.2420455,48.8364393,American Vintage,Mo-Sa 10:30-19:30,,
938397774,2.2409105,48.8377538,Gap,,,
938397779,2.2405759,48.8381538,Gap Kids,Mo-Sa 10:00-20:00,,
939134588,2.2408109,48.8386074,Comptoir des Cotonniers,,,
939134607,2.2405616,48.8390495,Aubade,Mo-Sa 10:30-14:00  15:00-19:30,,
939134623,2.2404786,48.8391948,Sud Express,Mo-Fr 10:00-19:00; Sa 10:00-19:30,,
939134624,2.2405417,48.8386250,Eric Bompard,Mo-Sa 10:30-19:00,,
939134626,2.2406055,48.8389718,Maje,Mo-Sa 10:30-19:30,,
939134646,2.2404040,48.8388691,Claudie Pierlot,,,Boulevard Jean Jaurès
939134647,2.2403904,48.8393470,Zadig & Voltaire,,,
939134667,2.2405764,48.8385633,Suncoo,,,
939134686,2.2404849,48.8387257,Ilva,Mo-Fr 10:45-19:30; Sa 10:30-19:30,,
939134687,2.2403206,48.8390166,Spontini,Mo-Sa 10:30-19:30,,
939134707,2.2406811,48.8388380,Karl Marc John,Mo 11:00-19:00; Tu-Sa 10:30-19:30,,
939134718,2.2409194,48.8384147,Lola Jones,Mo-Sa 10:30-19:30,,
939134719,2.2408793,48.8384857,Le Slip Français,Mo 13:00-19:00; Tu-Sa 11:00-19:00,,
939134721,2.2402800,48.8390883,Sandro,,,
940119646,2.2418113,48.8368713,De Fursac,,,
940712735,2.3811912,48.8500725,Salsa Studio,,,
942676913,2.2808701,48.8674368,Teenflo,,,
957292026,2.2774250,48.8593999,Bonton,,,
986085890,2.2448294,48.8304433,Diversita,,,
986085918,2.2451073,48.8310314,Mega Degriffes,,,
986085932,2.2450045,48.8312105,Mega-Lots,,,
987112146,2.2718473,48.8814985,Sym,,,
987112166,2.2746172,48.8806195,Dormeuil,,,
987112175,2.2737661,48.8808901,Gérard Darel,,,
987112218,2.2747570,48.8805749,Des Petits Hauts,,,
987112268,2.2724618,48.8813035,Cyrillus,Mo-Sa 10:00-19:00,,
987112283,2.2715132,48.8816168,Promod,,,
987112298,2.2735105,48.8809711,Étincelle,,,
988277658,2.2654018,48.8828446,Décision,,,
989431394,2.2659776,48.8949456,Bineau Retouches,,,
990033876,2.2437079,48.8432650,Retoucherie Fil d'Or,,,
994059065,2.2413728,48.8371528,Kidiliz,,,
994059085,2.2415066,48.8373856,Zapa,,,
994059110,2.2417371,48.8369789,Damart,Mo-Sa 10:00-19:00,,
994059112,2.2414580,48.8374718,Des Petits Hauts,,,
994059115,2.2412993,48.8372836,Sergent Major,,,
994059118,2.2414455,48.8370234,Ba&sh,Mo-Sa 10:30-19:30,,
994059125,2.2413713,48.8376238,Ekyog,,,
994059135,2.2414024,48.8371000,Antonelle,Mo 12:00-19:00; Tu-Sa 10:00-19:00,,
994059142,2.2413408,48.8372098,Princesse TamTam,Tu-Sa 10:00-19:00; Mo 11:00-19:00,,
994059143,2.2412082,48.8374457,Du Pareil au Même,Mo-Sa 10:00-19:00,,
995502838,2.2474625,48.8268695,Smart Stock,,,
995502846,2.2479288,48.8261119,B 173,,,
995502859,2.2475039,48.8263380,Jean-Jacques,,,
998797603,2.2461229,48.8342573,Le Singe Bleu,,,
1000815095,2.2399030,48.8336978,Loup Y Es-Tu ?,,,
1000815226,2.2445297,48.8320495,Fernand Lystig,,,
1013351524,2.2312201,48.8406204,Atelier.Na,Mo-Sa 10:30-19:30,,
1020352067,2.3752922,48.8715603,Préférence,,,
1020391904,2.3740337,48.8710910,Arc en Ciel,,,
1022710323,2.3735800,48.8708862,Star,,,
1022710340,2.3734714,48.8708739,Leo-bra,,,
1022710357,2.3733967,48.8708220,Outlet 99,,,
1022719750,2.2589972,48.8414631,Val de Sayre,,,
1022752613,2.3737302,48.8709526,Romy,,,
1023168042,2.3743844,48.8710573,Loona,,,
1023168068,2.3734743,48.8706718,Téa Paris,,,
1023168095,2.3752354,48.8713377,L'Attrape Cœur,,,
1023168124,2.3750678,48.8712819,Fifi,,,
1023168145,2.3744869,48.8712697,Froc,,,
1023168240,2.3755016,48.8714341,Shinel,,,
1023168248,2.3732762,48.8706037,Vic Fel,,,
1023168251,2.3740449,48.8709181,Princesse,,,
1027995969,2.2374517,48.8442362,Joseph Curtis,,,
1027996044,2.2374910,48.8447129,Weekend Max Mara,,,
1027996055,2.2376811,48.8437262,Micha,,,
1027996095,2.2379335,48.8441228,L'Esprit de la Mode,,,
1037173732,2.2371461,48.8447991,Capricci,,,
1037173745,2.2372225,48.8447392,Edith Laagab,,,
1038210027,2.2391572,48.8410675,Bensimon Collection,We-Sa 11:00-14:00  15:00-19:00; Tu 11:00-14:00  16:00-19:00,,
1041097853,2.2394703,48.8409744,Dégrif des Stocks,Mo-Su 10:00-19:30,,
1041097963,2.2398132,48.8403702,Angela Morlant,Mo-Sa 10:00-14:00  14:30-19:30,,
1042766898,2.2474813,48.8329276,En Mode,,,
1079716173,2.3416951,48.8469773,Sandro,,,
1101942167,2.2541769,48.8334557,Le Grenier à Fringues,,,Avenue Pierre Grenier
1102552605,2.3473136,48.8872070,,,,Rue Ramey
1110309635,2.2442010,48.8326307,Dressing Code...,,,
1112959065,2.2429169,48.8338565,Loding,,,
1120431500,2.4859388,48.7977339,Camaïeu,,,
1163340053,2.2966179,48.8477048,Caroll,,,Rue du commerce
1163575037,2.2964320,48.8476970,Gerard Darel,,,
1166729097,2.3615631,48.8574136,Loft Design By…,,,
1166729138,2.3617134,48.8573534,Ted Baker,,,
1185808672,2.2408917,48.8409073,Café Coton,,,
1195361667,2.4855798,48.8036142,Bambi,,www.bambishop.fr,
1199074693,2.4861382,48.8007221,Troc à Suivre,,,
1199074912,2.4860519,48.7980140,Mahé,,,
1207293055,2.2358836,48.8454730,La Récré à Deux,,,
1224811432,2.4860121,48.7993299,Stop Grif,,,
1224811434,2.4860094,48.7992195,Stop Griffe,,,
1225461851,2.3621108,48.8666023,Tati,,,
1232684824,2.3324298,48.8731905,Louis Vuitton Galeries Lafayette,Mo-Sa 09:30-20:30  Su 11:00-19:00,,Boulevard Haussmann
1234664787,2.2628947,48.9697845,Plaisir d'Offrir  Plaisir Partagé,,,
1251064502,2.3078779,48.8478228,Rose & Théo,,,
1252379195,2.3896096,48.8384713,Stincel,Mo-Sa 10:00-13:30 14:30-19:30,,
1252379596,2.3927605,48.8384387,,,,
1252382941,2.3909358,48.8376790,Amazon,,,Rue de Charenton
1253957808,2.2377751,48.8462829,B. Garbo,,,
1253957811,2.2373470,48.8461017,Elles,,,
1255346305,2.2381366,48.8459284,Bonnie & Clyde,,,
1264875631,2.3110632,48.8513206,,,,
1272931925,2.4144991,48.8794363,Camaïeu,,,
1279440209,2.2866975,48.8753659,2M Lingerie-PàP,,,
1280192063,2.2366698,48.8434073,Acanthe,Tu-Sa 10:00-12:30  14:30-19:00,,
1280199143,2.2573861,48.8840416,Autre Regard,,,
1282084767,2.2605532,48.8865724,Bobine,,,
1288947950,2.2370207,48.8434418,Ghillies Factory,,,
1288947980,2.2369667,48.8433414,Tigibus,Tu-Sa 09:00-19:00; Su 09:30-12:30,,
1291532303,2.2582045,48.8845480,Le Local,,,
1292143858,2.3677874,48.8640053,Vintage Clothing Store,,,Rue de Crussol
1302120076,2.2596256,48.8854169,,,,
1307645898,2.3101105,48.8473412,Dagobert,,,
1307645901,2.3096414,48.8472282,Bonheur de Mode,,,
1307645932,2.3093739,48.8471632,Mes Chaussettes Rouges,,,
1327343936,2.2630852,48.8851535,Numaé,,,
1334007469,2.3910562,48.8492635,Nozbone,,http://www.nozbone.com,Rue du Faubourg Saint-Antoine
1352887696,2.3739766,48.8492588,Baby the Star Shine Bright,Mo-Sa 12:00-19:00,http://babyparis.blog99.fc2.com/,
1361563034,2.3653731,48.8218081,,,,
1369136507,2.3298796,48.8735917,H&M,,,
1397582276,2.1811071,48.8767825,The Kooples,,,
1397582283,2.1814024,48.8769176,Andy,Tu-Sa 10:00-13:00 14:00-19:00,,
1398081958,2.1801822,48.8764345,Gérard Darel,,,
1398085548,2.1816745,48.8773241,Mango,,,Rue Paul Vaillant-Couturier
1398085551,2.1815258,48.8773326,Gary,,,
1400297902,2.1810678,48.8770296,Du Pareil au Même,,,
1400350300,2.1783846,48.8782396,OLa boutique,,,
1400350303,2.1810265,48.8755609,Hilander,,,
1401273548,2.1780029,48.8782925,Natalys,,,
1401273554,2.1782468,48.8783595,Tout Compte Fait,,,
1401273566,2.1793626,48.8774952,La Bohème,,,
1406330769,2.1813447,48.8770402,,,,
1408462746,2.3298919,48.8707627,Golfino,Mo-Sa 10:00-19:30,,Rue Scribe
1411499378,2.1976936,48.8902771,Johalyn,,,
1417976157,2.2568760,48.9720392,Lignes,,,
1420011144,2.2337366,48.8292391,Assinie,,,
1430135362,2.3803591,48.8513852,,,,
1430815433,2.3252275,48.8436724,Stock Market,,,
1432196154,2.3998811,48.8471345,Maryland-Cotton,Mo-Sa 09:30-20:00,,Rue du Rendez-Vous
1437396759,2.2749012,48.8586719,Du Pareil au Même,,,
1437396764,2.2751191,48.8597256,Mon Cadeau Préféré,,,
1437396786,2.2751074,48.8597923,À La Plage,,,
1438280156,2.2750534,48.8599713,Troc de la Muette,,,
1440251011,2.3395714,48.8776620,Sergent Major,,,
1442297638,2.2751837,48.8606078,L'Occaserie,,,
1446934512,2.2756712,48.8617960,Les Bambins et Cie,,,
1447463725,2.4039420,48.8350900,teeshirtplace.com,Mo-Fr 09:30-18:00,,Rue Ernest Lacoste
1449497781,2.2783181,48.8646203,Réciproque,,,
1449497784,2.2782074,48.8645300,Wan,,,
1453640782,2.2792851,48.8656558,Graine d'Amour,,,
1453640793,2.2783206,48.8648361,Réciproque,,,
1453640794,2.2786454,48.8650988,Réciproque,,,
1453640803,2.2793576,48.8657303,USA Concept Sport,Mo-Sa 10:00-19:00,,
1454697275,2.4619638,48.7934873,,,,
1454780807,2.2799345,48.8665189,IKKS Junior,,,
1454780818,2.2798469,48.8663405,Sandro,,,
1456695047,2.2804353,48.8668385,American Retro,,,
1456695052,2.2803093,48.8669751,John Demersay,,,
1456695062,2.2804141,48.8668093,Les Petites...,,,
1456695066,2.2805624,48.8670126,Nina,,,
1456695084,2.2805107,48.8669420,Prestige,,,
1456695091,2.2805452,48.8669891,Scarlet Ross,,,
1456695094,2.2803343,48.8666996,Victoria,,,
1456695096,2.2807843,48.8672879,Votre Nom,,,
1461101849,2.2809189,48.8675031,Harrison,,,
1461101853,2.2809800,48.8675864,Oliver Grant,,,
1462242135,2.2814727,48.8679064,Anti-Crise,,,
1462242136,2.2817412,48.8682702,Bel Air,,,
1462242175,2.2818280,48.8680564,Promod,,,
1463853538,2.2827298,48.8684385,Atelier de Courcelles,,,
1463853546,2.2824596,48.8685745,Caroll,,,
1463853550,2.2826107,48.8683881,Marco Serussi,,,
1463853555,2.2819218,48.8683467,Stepha,,,
1463853557,2.2825741,48.8683727,Tout Compte Fait,,,
1463853559,2.2821404,48.8684394,,,,
1465052902,2.2834323,48.8687358,Doré Doré,,,
1465052903,2.2832292,48.8686497,Etam,,,
1465052907,2.2831353,48.8686100,Sergent Major,,,
1465052908,2.2835846,48.8688004,Un Jour Ailleurs,,,
1466909508,2.2838989,48.8689336,Du Pareil au Même,,,
1466909527,2.2837515,48.8691211,Les Envahisseurs,,,
1466909536,2.2838590,48.8691666,Petit Page Junior,,,
1471972825,2.2841723,48.8692991,American Apparel,,,
1471972830,2.2842525,48.8693330,Clayeux,,,
1473027349,2.2392967,48.8324953,Milgriff,Mo-Sa 10:00-19:30,,
1474338348,2.4422532,48.7752044,La Halle!,,,
1486314050,2.3433544,48.8712614,Levi's Store,,,
1486314056,2.3420416,48.8714703,Motus,,,
1488772078,2.3574635,48.8795929,Beauty One,,,
1504098171,2.3314318,48.8703083,Basler,Mo-Sa 10:00-19:00,,
1514722070,2.1954054,48.8902551,La Suite,,,
1514722084,2.1962294,48.8902358,La French,,,
1528672386,2.3470090,48.8581770,Du Pareil au Même,Mo-Sa 10:00-19:30,,
1528727082,2.3672590,48.8527730,White Boutik,Mo-Sa 10:00-19:00,,
1540677915,2.3334220,48.8732820,H&M,,,
1540677917,2.3300511,48.8735763,Mango,,,
1559465832,2.2359793,48.8079860,Lili Fripouille,,,
1578702702,2.4509101,48.8480571,Cyrillus,,,
1649702448,2.3184866,48.8699833,,,,
1651309344,2.3495381,48.8604300,Puma Store,,,Boulevard de Sébastopol
1659346264,2.4800195,48.9055292,Tati,Mo-Sa 10:00-19:00;Su 11:00-19:00,,
1668734336,2.3460180,48.8940750,La Prospérité,,,
1668777341,2.3430602,48.8930534,,,,
1669011357,2.3423457,48.8937108,Saga des Marques,,,
1669013367,2.3415970,48.8942600,Sergent Major,,,
1670151362,2.3636450,48.8695700,American Apparel,,,
1670552997,2.3329077,48.8709548,Burma,,,
1670553028,2.3333757,48.8710323,Mango,,,
1670553068,2.3330039,48.8709702,Zara,,,
1672098371,2.3769394,48.8509066,,,,
1672433522,2.2509660,48.7689769,MILL Affaires,,,
1673338673,2.2593293,48.8422929,Nastasia,,,
1681555578,2.3495210,48.8436278,V.O. Boutik,Tu-Sa 13:00-20:30  Su PH 15:00-20:00,,
1681555579,2.3495487,48.8435295,Diwali,Mo-Su 10:30-19:45,,
1696573900,2.2273020,48.7868616,Falbala,,,Galerie du Patio
1696573950,2.2270793,48.7868422,Anaïs B,,,Galerie du Patio
1699161352,2.3400970,48.8717448,De Fursac,,https://www.defursac.fr/,Rue de Richelieu
1702570595,2.3494123,48.8434710,Accessorie's,,,
1702570604,2.3494004,48.8435263,L'Atelier,,,
1728936578,2.2477197,48.8973539,Camaïeu,Mo-Sa 09:30-19:00,,
1728952863,2.2480501,48.8969438,Urban Mood,Mo-Sa 10:00-19:00,,
1729160208,2.2484510,48.8964461,Katia,,,
1729160229,2.2486850,48.8961556,Comptoir des Parisiennes,Mo-Su 10:00-19:00,,
1744841770,2.4834223,48.8370415,Topolino,,,
1763282433,2.2643033,48.8003128,Les P'tits Loups,,,
1765475925,2.4210139,48.8138654,Jo Bosso,,,
1777872489,2.1827856,48.8777072,Jacadi,,,
1780810888,2.1822156,48.8776991,Sergent Major,,,
1782326546,2.2586822,48.9893995,Ronde et Chic,,,
1785271569,2.3759799,48.8532287,Petite Mendigote,,,
1801535568,2.3227943,48.8428520,Celio,,,
1801601957,2.3222812,48.8429486,La Bagagerie,,,
1801601960,2.3221189,48.8428339,Promod,,,
1801601966,2.3224904,48.8428295,Naf Naf,,,
1803875300,2.3231403,48.8433835,C&A,,,
1821668288,2.3325274,48.8762369,Pronuptia,,,
1823551363,2.3285739,48.8812812,Café Coton,Mo-Sa 10:00-14:15 15:00-19:30,,
1824369406,2.4719720,48.8061397,,,,
1824376872,2.1819484,48.8780894,Daniel Hechter,,,
1824509095,2.3286475,48.8745991,Citadium,Mo-Fr 10:00-20:00; Sa 10:00-20:30,,
1827138880,2.3400452,48.8762595,Cadoceur,,,
1827138898,2.3396808,48.8763363,Na Na,,,
1827138899,2.3397727,48.8765165,Nana,,,
1827903169,2.4086902,48.7641437,Tati,,,
1828600822,2.3308851,48.8727804,Uniqlo,Mo-Sa 10:00-20:00,www.uniqlo.fr,Rue Scribe
1833624110,2.3606346,48.8566255,COS,Mo-Sa 10:00-20:00,https://www.cosstores.com/,
1842973552,2.3308934,48.8697597,DLM Paris,,https://sites.google.com/site/dlmparispretaporter/,Rue Daunou
1843076224,2.4851453,48.7981950,Elodie,,,
1871182833,2.3328941,48.8541024,Louis Vuitton,Mo-Su 10:30-19:30,http://eu.louisvuitton.com/eng-e1/point-of-sale/france/louis-vuitton-paris-saint-germain-des-pres,
1872840148,2.3610297,48.8831950,The Chennai Silks,,,
1907058066,2.1815443,48.8771416,,,,
1907058069,2.1817080,48.8773612,Mango Style,,,
1909738651,2.3312694,48.9047348,Sergent Major,,,
1909858173,2.3423067,48.8929281,L'annexe,,,
1928838860,2.3504064,48.8687246,Miss Papillon,Mo-Sa,http://www.misspapillon.fr,
1930542168,2.3426492,48.8498802,Celio,,,
1930542182,2.3421577,48.8490716,Desigual,,,
1930542188,2.3415752,48.8481136,Derby,,,
1930542190,2.3415095,48.8480242,Dylanium Le Cuir.,,,
1930542191,2.3417627,48.8484386,Edson,,,
1930542202,2.3414378,48.8479041,JP,,,
1930542203,2.3421949,48.8491383,Jules,Mo-Sa 10:00-19:30,,
1930542216,2.3430148,48.8504528,Naf Naf,Mo-Sa 10:00-19:30,,
1930542218,2.3432924,48.8464020,Nepalaya,,,
1930542220,2.3412951,48.8476529,New Shop,,,
1930542233,2.3427310,48.8499989,Six,,,
1930542236,2.3425903,48.8497743,Sud Express,,,
1930542238,2.3412654,48.8476006,Trop Bien !,,,
1930542244,2.3423453,48.8494019,United Colors of Benetton,,,
1930542332,2.3442105,48.8464154,,,,
1930556648,2.3430056,48.8503261,Pimkie,Mo-Sa 10:00-19:30,,
1933610142,2.2923953,48.7781777,Le Lièvre et La Tortue,,,
1940149207,2.3065383,48.9703891,Promod,,,
1940149708,2.3068416,48.9703758,Blue Azur,,,
1940220846,2.3075056,48.9710899,Naf Naf,,,
1959469360,2.4174037,48.9916314,,,,
1983073461,2.3856336,48.8470449,,,,
1983637458,2.3078245,48.8534183,Cyrillus,We-Sa 10:00-19:00  Mo 12:00-19:00,,
1986745610,2.2980063,48.8731872,Celio,,,
1987166805,2.2876705,48.8640369,Gap,,,
1996930703,2.3550984,48.8786841,Aux Sept Merveilles,,,Rue La Fayette
1999839286,2.3035128,48.8658184,Valentino,,,Avenue Montaigne
1999850308,2.3074433,48.8678583,Chanel,,,Avenue Montaigne
2011444790,2.4177399,48.8414051,,,,
2021727482,2.3189961,48.8177988,Bonobo,Mo-Sa 10:00-19:00,,
2036561909,2.3024208,48.8695994,Givenchy,,,
2036561924,2.3013462,48.8702955,Hermès,,,Avenue George V
2038272197,2.2411683,48.8379911,Le Marchand d'Étoile,,,
2039657538,2.3005258,48.8716418,Louis Vuitton,,,Avenue des Champs-Élysées
2039668071,2.3012493,48.8707056,Philipp Plein,,,Avenue George V
2039668081,2.3042642,48.8688989,Bruce Field Homme,,,Rue Marbeuf
2039898589,2.3035328,48.8707032,Tara Jarmon,,,
2039904971,2.3041764,48.8704916,Citadium,Mo-Sa 10:00-20:00,,
2039904978,2.3039833,48.8705604,Nike,,https://www.nike.com/,
2046134309,2.3817476,48.7990816,Okaïdi,,,
2046134310,2.3815649,48.7992903,Miss Coquines,,,
2052942061,2.3190998,48.8174589,Smile,Mo-Sa 10:00-19:30,,
2068093388,2.4375218,48.8472295,The Kooples,Mo 11:00-19:00; Tu-Fr 10:30-19:30; Sa 10:30-20:00,,
2074923960,2.3730317,48.8808759,Euroline Mode,,,
2076413198,2.3245942,48.8178393,Degrif des Stocks,,,
2084076554,2.3608864,48.8155172,Surplus Américain Nr 94,,,Avenue de Fontainebleau
2086124422,2.2211561,48.7810243,Hollister,,,
2093316961,2.3020135,48.7848888,Good Shop,,,
2093331610,2.3023569,48.7851079,Domsport,Tu-Fr 09:30-12:30 14:30-19:30; Sa 09:30-13:00 14:00-19:30,,
2103216542,2.3430109,48.8726432,,,,
2122702499,2.3065790,48.8271972,Du Pareil au Même,,,
2137619618,2.3929516,48.7910313,,,,
2137628240,2.3950614,48.7913621,,,,
2137628252,2.3968247,48.7932295,Eetho,,,
2138310206,2.3500775,48.8605110,Citadium,Mo-sa 11:00-20:00,,Rue Quincampoix
2138310213,2.3496718,48.8606099,Nike,,,
2145074447,2.3896829,48.8445510,Billy The Kid,Tu-Sa 10:00-19:00,,
2145835680,2.3890948,48.8453293,Silver Creek,,,
2146056940,2.3484789,48.8602439,Redskins,,,
2146056941,2.3479713,48.8603466,Schott,,,
2146056955,2.3486458,48.8605765,44th Square,,,
2154724511,2.2200791,48.8422081,Vestiboutique,,,
2154724563,2.2201592,48.8421925,,,,
2161521571,2.2373703,48.8805436,Attache Cœur,,,
2161521581,2.2367090,48.8799826,La Puce à l'Oreille,,,
2166859755,2.3037964,48.8706224,Best Mountain,,,
2173554562,2.3505816,48.8206985,Boîte à Surprises,,,
2178148280,2.3503036,48.8617804,Columbia,,,
2184101520,2.3627688,48.8229044,Hoa Ly,,http://www.hoaly.fr,
2187142318,2.3092912,48.8696390,Banana Republic,,,
2191591240,2.3614139,48.8119511,Platinium,,,Avenue de Fontainebleau
2191591243,2.3612906,48.8123026,Albert,,,Avenue de Fontainebleau
2191634593,2.3608793,48.8136275,La Station des Affaires,,,Avenue de Fontainebleau
2191634597,2.3609096,48.8135266,Paradis D'griff,,,Avenue de Fontainebleau
2191682044,2.3612289,48.8143956,JN Espace Mariage,,,Avenue de Fontainebleau
2191773986,2.3602359,48.8156236,Jean's Maverick,,http://www.repairjeans.com,
2193289262,2.3494585,48.8258722,MZR Chic,,,
2194705296,2.3317488,48.8279266,Lilas,,,Rue d'Alésia
2194983204,2.3275805,48.8279462,Lilina,,,Rue d'Alésia
2195019201,2.3270133,48.8275002,Promod,,,
2195019203,2.3262903,48.8271950,Newsport,,,Avenue du Général Leclerc
2195019205,2.3269747,48.8274196,Celio,,,
2217707737,2.3622582,48.8251962,Mydo Mod's,,,
2217707748,2.3618763,48.8250834,Kim Fashion,,,
2219924812,2.3245773,48.8236543,Dany Boutique,,,
2239327031,2.2968524,48.8369830,Outlet Store,Mo-Su 10:30-19:30,,Rue de la Convention
2239344491,2.2973004,48.8368521,Antonelle,,,
2252820798,2.3072689,48.8274773,Maria,,,
2256148294,2.2824179,48.8351902,Des Griffes Boulevard,,,Boulevard Victor
2256148299,2.2820477,48.8352961,Des Griffes Boulevard,,,Boulevard Victor
2258768717,2.3066491,48.8276257,Ober,,,
2273162701,2.3255348,48.8242665,Caprices...,Mo-Sa 10:00-20:00,,
2273222575,2.2830526,48.8435677,Jessica,,,Rue Saint-Charles
2273226202,2.2824599,48.8428973,Kenzie,,,Rue Saint-Charles
2273228292,2.2818905,48.8426567,Alice Son's,,,Rue Saint-Charles
2273232847,2.2817248,48.8424681,Bedros,Tu-Sa 10:30-19:00  Mo 14:30-19:00,,Rue Saint-Charles
2273249435,2.2810949,48.8417482,Elegantissimo,,,Rue Saint-Charles
2274029188,2.3612397,48.8899941,Élégance & Vous,,,
2275170524,2.3623566,48.8898928,Riquet Fashion,,,
2279510082,2.3596824,48.8899991,Miss Moni,,,
2285154161,2.3608708,48.8901925,,,,
2299620009,2.2702552,48.9148519,Gallery 512,,,
2301505902,2.3606975,48.8263554,Shanghai,,,
2301882946,2.3564462,48.8278097,Lingerie Lisa,Tu-Th Sa 10:00-13:30 14:30-19:00; Fr 10:00-19:00,,
2301882954,2.3566685,48.8271259,Place des Marques,,,
2305186091,2.3601651,48.8909811,Vert d'O,Mo-Sa 10:00-19:30,,
2309500714,2.3452642,48.8596610,C&A,,http://www.canda.com,Rue de Rivoli
2310467226,2.3600444,48.8917645,,,,
2327289914,2.3165196,48.8132448,Mystère et Boule de Gomme,Tu-Sa 10:00-19:00,,
2329102916,2.4181774,48.7941839,Gémo,,,
2336070798,2.1938001,48.8620448,,,,avenue de Fouilleuse
2336070801,2.1947125,48.8622901,Camaïeu,Mo-Sa 09:00-20:00,,avenue de Fouilleuse
2338056770,2.4351065,48.8468405,Le Galion,,,
2342410364,2.4353634,48.8469280,Céline Lingerie,,,
2344644906,2.3166513,48.8134811,Les Pénélopes,Tu-Sa 11:00-19:30,,
2347882870,2.3288785,48.8698753,Gant Store,,,
2352375201,2.3358820,48.8514105,Curling,,,
2354944442,2.2643374,48.8018925,Jerode,,,
2358812836,2.3637571,48.8668099,Celio,Mo-Sa 10:00-19:30,,
2358812839,2.3640437,48.8666401,Etam Lingerie,,,
2359419005,2.4345405,48.8482903,Vanille,,,
2361592111,2.2432365,48.7827644,,,,
2363482523,2.2647834,48.8022146,Perlato,,,
2365654398,2.4362701,48.8482245,Ane Thon,,,
2365885184,2.3514873,48.8162412,Gizelle Élégance,,,
2387355914,2.3701144,48.8715183,Stock griffes,,,
2387978318,2.3638125,48.8559341,Deby Debo,,,
2387978826,2.3643336,48.8562216,Zadig & Voltaire,,,
2387979284,2.3647291,48.8564231,The Kooples,,,
2388380597,2.3648030,48.8537661,Tera Bora,,,
2388388749,2.3652900,48.8536358,Du Pareil au Même,,,
2389188910,2.3646309,48.8559647,Rynshu,,,
2389246941,2.3637740,48.8565591,Aridza Bross,,,
2389246945,2.3638455,48.8565428,Majestic Filatures,,,
2389258698,2.3632513,48.8568654,American Vintage,,,
2389264964,2.3629948,48.8569234,Autour du Monde,,,
2389269187,2.3624996,48.8569290,Eva Tralala,,,
2389269188,2.3626994,48.8568667,Ekyog,,,
2389298898,2.3614179,48.8573010,Spontini,,,
2389298899,2.3612704,48.8573609,Princesse Tam-Tam,,,
2389300817,2.3612747,48.8575105,ba&sh,,,
2389301021,2.3611543,48.8575593,Maje,,,
2389304165,2.3606653,48.8575793,Aubade,,,
2389304166,2.3605555,48.8576247,Comptoir des Cotonniers,,,
2389309642,2.3599733,48.8579302,Gérard Darel,,,
2389310269,2.3597302,48.8580518,Les Petites...,,,
2389311356,2.3599035,48.8581466,Claudie Pierlot,,,
2389313449,2.3594954,48.8581817,Sessùn,,,
2389313450,2.3594424,48.8582122,Zapa,,,
2389315295,2.3589293,48.8586947,Zadig & Voltaire,,,
2389317628,2.3584631,48.8587371,Fragonard,,,
2389318674,2.3583233,48.8588427,April May,,,
2389318675,2.3582411,48.8588902,Les Bourgeoises,,,
2389318676,2.3583848,48.8588028,Antoine&Lili,,,
2389465890,2.3484234,48.8634708,Destock,,,
2394065562,2.3491106,48.8614639,ACZ,,,
2394065565,2.3491315,48.8615076,Gold Foot,,,
2394065576,2.3491473,48.8615372,Oprah Paris,,,
2394065585,2.3491735,48.8615809,Vintage Story 66,Mo-Sa 11:30-19:30,,
2394916419,2.3710221,48.8479620,L'Empereur Chemisier,,,
2395413228,2.4355429,48.8473129,Caroll,Tu-Fr 10:00-19:00; Mo 13:30-19:00; Sa 10:00-19:30,,
2395413239,2.4356827,48.8473074,Etam,,,
2395413240,2.4362649,48.8472843,Gérard Darel,,,
2395413241,2.4361927,48.8472872,Ilva,Mo-Fr 10:30-19:15; Sa 10:30-19:30,,
2395413243,2.4354510,48.8473165,Un Deux Trois,,,
2395413252,2.4358744,48.8472998,Nina Kaufmann,,,
2395413255,2.4359715,48.8472959,Naf Naf,Tu-Sa 10:00-19:30,,
2395413259,2.4358215,48.8473019,Calzedonia,,,
2395413263,2.4361324,48.8472896,Z Génération,Mo-Sa 10:00-19:00,,
2404825153,2.2402471,48.8375882,Oliver Grant,,,
2405146657,2.2396698,48.8369106,,,,
2405146659,2.2397909,48.8369256,,,,
2405146669,2.2399634,48.8371983,,,,
2405146670,2.2399407,48.8372780,,,,
2405146672,2.2399180,48.8373577,,,,
2405146675,2.2398828,48.8374814,,,,
2405943784,2.4371073,48.8475031,Des Petits Hauts,Mo 13:00-19:00; Tu-Sa 10:00-19:00,,
2405943786,2.4379728,48.8470623,Talha Monde,Tu Th-Sa 10:00-19:30; We 14:30-19:30,,
2405943790,2.4356500,48.8471407,Celio,Mo-Sa 10:00-19:30,,
2405943791,2.4370851,48.8474011,ba&sh,Tu-Sa 10:30-19:30; Mo 13:00-19:30,,
2405943793,2.4368374,48.8474877,Compagnie de Californie,,,
2405943794,2.4359578,48.8471261,Un Jour Ailleurs,Mo 14:00-19:00; Tu-Sa 10:00-19:00,,
2405943798,2.4358691,48.8471303,Du Pareil au Même,,,
2405943799,2.4371845,48.8479685,Ekyog,,,
2405943805,2.4379042,48.8470644,Kookaï,Tu-Fr 10:30-19:30; Mo 14:30-19:30; Sa 10:00-19:30,,
2405943806,2.4368884,48.8478215,Le Square,,,
2405943807,2.4371729,48.8479098,Maje,Mo-Sa 10:30-19:30,,
2405943814,2.4376838,48.8470713,Givemefive,Tu-Sa 10:00-13:00 14:00-19:00; Mo 14:00-19:00,,
2405943816,2.4357137,48.8471377,Zappa,,,
2405943818,2.4368183,48.8473948,Patrick Gérard,,,
2405943819,2.4362142,48.8471139,Petit Bateau,Mo-Sa 10:00-19:00,,
2405943821,2.4374247,48.8472381,Princesse Tam-Tam,Tu-Sa 10:30-19:00; Mo 14:00-19:00,,
2405943822,2.4373812,48.8470807,Remake,Mo-Sa 10:00-19:00,,
2405943823,2.4384297,48.8470406,Sandro,Tu-Sa 10:30-19:30; Mo 13:30-19:30,,
2405943824,2.4385737,48.8470378,Spotland,,,
2405943826,2.4373012,48.8470832,Sud Express,,,
2405943827,2.4349774,48.8471687,Sulky,Tu-Sa 10:00-13:00 14:30-19:30  Su 10:00-13:00,,
2405943828,2.4375858,48.8470743,Claudie Pierlot,Tu-Sa 10:30-19:30; Mo 13:30-19:30,,
2405943832,2.4377490,48.8470692,Ikks Women,Mo 14:00-19:30; Tu-Sa 10:00-19:30,http://stores.ikks.com/fr_fr/boutique/vincennes/ikks-women-vincennes/22c445fecf06ba0a16ec9f3539df54ea,
2405943834,2.4355267,48.8471466,Altermundi,,,
2428529787,2.4367944,48.8458235,Antonelle,Mo-Sa 10:00-19:00,,
2428529795,2.4370435,48.8469280,Arthur,Tu-Sa 10:00-14:00 15:00-19:00; Mo 14:30-19:00,,
2428529820,2.4364491,48.8456624,Devernos,Tu-Sa 10:30-13:30 15:00-19:00,,
2428529851,2.4366902,48.8452819,Jessya,,,
2428529867,2.4366796,48.8468138,Lola Jones,Mo-Sa 10:30-19:30,,
2428529870,2.4364696,48.8457654,Mary Kimberley,Tu-Th 10:30-13:30 15:00-19:00  Fr Sa 10:00-13:30 14:30-19:00  Mo 14:00-19:00,,
2428529872,2.4366451,48.8466424,Maudet,,,
2428529949,2.4365319,48.8460769,Rpère de Femme,,,
2428529955,2.4364995,48.8459145,Sergent Major,Tu-Sa 10:00-19:00  Mo 15:00-19:00,,
2428529961,2.4364570,48.8457023,Shana,,,
2429920488,2.3806382,48.8586477,Kiabi,,,
2445522907,2.3440932,48.8528000,Celio,,,Boulevard Saint-Michel
2449418757,2.2844901,48.8455923,Lynn Adler,,,Rue Saint-Charles
2449440155,2.2847640,48.8456004,ID elle,,,Rue Saint-Charles
2449445771,2.2846462,48.8458771,BIS BOUTIQUE SOLIDAIRE,Mo-Sa 10:00-19:30,https://www.bisboutiquesolidaire.fr/,Rue Saint-Charles
2458280771,2.2853124,48.8462249,Le Coin des Marques,,,Rue Saint-Charles
2458325626,2.2850179,48.8458860,MARY AUDE PARIS St Charles,,,Rue Saint-Charles
2458325627,2.2849464,48.8458029,Atmosphère,Tu-Sa 10:30-20:35  Mo 14:00-19:05,,Rue Saint-Charles
2465408432,2.3649233,48.8639371,Benny,,,
2468805331,2.3285653,48.8751131,Promod,Mo-Sa 09:30-19:30,http://www.promod.fr,Rue de Caumartin
2469086271,2.3286029,48.8756797,Camaïeu,Mo-Sa 09:30-20:00,,
2469086280,2.3284895,48.8758900,Marceline,Mo-Sa 10:30-20:30,,
2477953013,2.2934306,48.7778589,Déclaration,,,
2478201168,2.3455174,48.8642970,Berenice,,,
2478201174,2.3447930,48.8659266,COS,Mo-Sa 10:00-20:00,,
2478201175,2.3446045,48.8663212,women's secret,,,
2478201180,2.3454744,48.8643796,Cotélac,Mo 12:00-19:00; Tu-Sa 10:30-19:00,,
2478201195,2.3442464,48.8664162,Sisley,,,
2478201214,2.3451034,48.8645833,MAX & Co.,,,
2478201223,2.3451367,48.8645147,Redskins,,,
2478201226,2.3448021,48.8650823,Replay,Mo-Fr 11:00-19:30; Sa 10:30-19:30,,
2478201230,2.3444873,48.8665961,Un amour de Lingerie,,,
2478201233,2.3444181,48.8660399,Nina Kendosa,,,
2478201234,2.3453311,48.8641555,Zadig & Voltaire,Mo-Sa 10:30-19:30; Su 10:00-18:00,,
2478201289,2.3441243,48.8673156,,,,
2496113321,2.3371424,48.8516222,Vercourt,,,
2497306401,2.4858832,48.8046241,Jacadi,,,
2497306411,2.4853897,48.8042635,Mia,,,
2497306419,2.4862099,48.8040495,Clin d'Oeil,,,
2497946421,2.3296482,48.8760342,Gentleman Gallery,,,
2497946426,2.3316267,48.8761048,Riu Paris,Mar-Sep: Mo-Sa 09:30-20:00  Oct-Feb: Mo-Sa 09:00-19:30,,
2497946427,2.3289684,48.8757409,Jean-Marc Philippe,Mo-Sa 09:30-19:30,,
2497946433,2.3307211,48.8759617,Princesse Tam-Tam,Mo-Sa 10:00-19:30,,
2497946443,2.3312569,48.8760387,Un Jour Ailleurs,Mo-Sa 10:00-19:30,,
2497946444,2.3285916,48.8755050,Valege,,,
2497946445,2.3285951,48.8755808,Yves Dorsey,,,
2497946465,2.3294310,48.8760030,Coton Doux,,,
2500448612,2.3080068,48.8336118,Ding-Fring,,,
2508259824,2.4874951,48.8379879,O'Scarlett,,,
2521029656,2.3389389,48.8840910,La Fameuse,Mo off; Tu-Sa 11:00-14:00 15:00-20:00; Su 14:30-20:00,www.homies.paris,Rue des Abbesses
2525834036,2.3578358,48.9378992,C&A,,,
2533856383,2.3258816,48.8225486,Jolie,,,
2534017291,2.3033550,48.8696650,Beretta,,,
2535849890,2.3716059,48.8853260,La Halle,,,
2553153342,2.3435966,48.8517740,Côte à Côte,Mo-Sa 10:30-21:00; Su 13:00-20:00,,Boulevard Saint-Michel
2553153344,2.3437935,48.8522142,Etam,,,Boulevard Saint-Michel
2553153349,2.3437473,48.8521205,Lewis,,,Boulevard Saint-Michel
2553153356,2.3440032,48.8526182,Promod,,http://promod.fr,Boulevard Saint-Michel
2553153357,2.3441607,48.8529381,Calzedonia,,,Boulevard Saint-Michel
2556489610,2.2938260,48.8501315,Stock'shop,,,
2558774112,2.4859463,48.7978398,Margo,,,
2558774129,2.4857471,48.7975969,,,,
2559599033,2.4857185,48.7964520,Davril,,,
2559835576,2.4859551,48.7962256,Okaïdi,,,
2559835622,2.4865991,48.7968786,,,,
2563068458,2.2895356,48.8475752,C & M,,,Rue de Lourmel
2574709260,2.2959717,48.8784656,Naf Naf,,,
2575207496,2.3437416,48.8517014,Côte à Côte,,,Rue de la Harpe
2580125956,2.4579883,48.9365061,Miss Tendance,,,
2580125959,2.4583369,48.9367563,Degrif des Marques,,,
2585275312,2.4571353,48.9356723,Indian Fashion,,,
2585286226,2.4584228,48.9368070,Yi Fa,,,
2592465149,2.3360217,48.8512909,Samsøe Samsøe,,https://www.samsoe.com/fr/stores#!/l/paris/27-rue-saint-sulpice/,Rue Saint-Sulpice
2606443650,2.3255059,48.8148872,Mistigriff,,,
2615219653,2.4348348,48.8467120,Nino Boutique,,,
2624452980,2.3220607,48.8294030,Celio,,,
2625311148,2.4347740,48.8454939,Lou Delamare,,,
2626543568,2.3418002,48.8518959,Miss Coquines,,,
2626551366,2.3085370,48.8597313,Ba&sh,,,
2626551369,2.3085974,48.8598596,Le Coin des Marques,,,
2634120405,2.3497794,48.8678294,Frank L.,,,
2655913299,2.3254550,48.8717318,Petit Bateau,Mo-Sa 10:00-19:30,,
2655913301,2.3255416,48.8718724,Catimi,,,
2655913304,2.3256651,48.8720337,Jacadi Paris Tronchet,Mo-Sa 10:00-19:30,,
2655913309,2.3258525,48.8722774,Arthur,,,
2655913314,2.3258364,48.8722580,Olivier Grant,,,
2655913316,2.3259332,48.8723704,Etam Lingerie,,,
2655913319,2.3259648,48.8724134,Aubade,,,
2655913322,2.3261293,48.8726607,Princesse Tam-Tam,Mo 11:00-19:30; Tu Th-Sa 10:30-19:30,,
2655913325,2.3261013,48.8726227,Rodier,,,
2655913327,2.3260678,48.8725778,Charles Cotonay,,,
2655913330,2.3260334,48.8725340,Sophie-flore,Mo 11:00-19:00; Tu-Sa 10:00-19:00,,
2655915228,2.3264277,48.8730708,Comptoir des Cotonniers,,,
2655922954,2.3265888,48.8733013,Devernois,,,
2655932806,2.3257923,48.8715174,Christine Laure,,,
2655932812,2.3261463,48.8719902,The Kooples,,,
2655938073,2.3262168,48.8720864,Caroll,,,
2655938074,2.3262977,48.8721955,Gants Helion,,,
2655938076,2.3263471,48.8722656,Chassagnard,,,
2655942713,2.3264171,48.8723703,Wimona,,,
2655943844,2.3268434,48.8729370,Ekyog,Mo 11:30-19:15; Tu-Sa 10:30-19:15,,
2656051550,2.3235016,48.8692226,Cerruti 1881,,,
2656051552,2.3243047,48.8690014,Massimo Dutti,,,
2656051554,2.3245111,48.8689405,Tru Trussardi,,,
2656051559,2.3249862,48.8692013,Kenzo,Mo-Sa 10:30-19:30,,Boulevard de la Madeleine
2656051562,2.3255038,48.8700407,Marella,,,
2656051563,2.3255675,48.8701382,Alain Figaret,,,
2656051571,2.3228099,48.8697320,Giambattista Valli,,,
2657674393,2.3741080,48.8519162,Petit Bateau,,,
2657717035,2.3433531,48.8523050,Démocratie Prêt-à-porter,Mo-Sa 11:00-19:30;Su 14:00-19:00,,Boulevard Saint-Michel
2659652543,2.4573531,48.9358462,Universal Mode,,,
2661514557,2.4591128,48.9363196,Style Row,,,
2661537454,2.4596760,48.9362244,Peau d'Ange,,,
2669085327,2.3479363,48.8584678,Mad Vintage,,,
2671067679,2.3563803,48.8300565,Guerrisol,Mo-Sa 10:30-19:30,,
2677136271,2.4532483,48.9206063,Ronde et Belle,,,
2677145790,2.4524865,48.9204829,Uranium Club,,,
2677146504,2.4524007,48.9204406,Uranium Kid's,,,
2677147665,2.4521539,48.9203137,Uranium,,,
2677175362,2.4521378,48.9195876,GMV,,,
2680653216,2.2990392,48.8721316,Hugo Boss,,,
2684147060,2.3758220,48.8533826,Balibaris,,,Rue de Charonne
2688112534,2.1716014,48.8859444,Model's,,,
2689475506,2.3004275,48.8724551,Milady,,,
2696636920,2.3037097,48.8567710,Liolà,,,
2697524470,2.2797897,48.8475351,Cuirs et Fourrures du Front de Seine,,,
2700277774,2.3253830,48.8236148,Sandra,,,
2702859052,2.1868576,48.8825732,La Halle aux Chaussures,Mo-Sa 10:00-19:00,,
2707426321,2.3576100,48.8240863,Bilatéral,,,
2707426335,2.3588149,48.8221587,Guerrisol,,,
2708917283,2.3624078,48.8544137,Aux Comptoires du Chineur,,,Rue Saint-Paul
2709028164,2.4762485,48.7640221,Aubert,,,
2724261529,2.4345098,48.8454257,Blaise,,,
2727224600,2.4491761,48.9189085,Saaf,,,
2727225572,2.4489562,48.9187993,105e Avenue,,,
2727230981,2.4485109,48.9186653,New Shop,,,
2727232215,2.4488596,48.9184926,P.A. Style,,,
2730588689,2.3291097,48.8546575,Daniel Crémieux,,,
2730588691,2.3307449,48.8541941,Ralph Lauren,,,
2733570089,2.2962403,48.8779890,Etam,,,
2733570091,2.2964144,48.8779466,Gap,,,
2733570092,2.2971303,48.8777959,Celio,,,
2733570097,2.2961804,48.8780150,Oliver Grant,,,
2733577379,2.2957771,48.8781010,Kookaï,,,
2733610980,2.2935268,48.8786137,Bianca,,,
2733610985,2.2937156,48.8785732,J. Martin,,,
2733610987,2.2938399,48.8785486,C. G. de Mauriac,,,
2733610989,2.2936094,48.8789763,Lacoste,,,
2733611001,2.2938456,48.8789179,Sandro,,,
2734123360,2.4484507,48.9185458,Nathalie,,,
2734125020,2.4483327,48.9185000,A.deF.,,,
2734136376,2.4480486,48.9183625,Jules Enfant,,,
2734140872,2.4482468,48.9182215,Jules...La Suite,,,
2734147171,2.4480859,48.9181474,Charlanne,,,
2734148395,2.4478552,48.9182779,Jolie Mode,,,
2742206530,2.4471099,48.9179128,Rony Prix,,,
2745637272,2.3068899,48.8560827,Kerrymara,,,
2750250758,2.3398669,48.8662130,Cyrillus,,,
2750316251,2.3545111,48.8324535,Catex,Mo-Su 10:00-13:30  Mo-Sa 14:30-19:00,,
2753780768,2.4343020,48.8483437,Planète Séduction,,,
2758385974,2.4468526,48.9177835,Cactuss,,,
2758527139,2.3277307,48.8518625,Berluti,,,
2758817949,2.2929180,48.8859640,Estelle,,,
2769807629,2.3496920,48.8678570,Polo,,,
2770625316,2.3518935,48.8362283,Mondial griff.com,,,
2770625354,2.3519585,48.8664910,Yuka,,,
2772165624,2.3499587,48.8677880,Chic Life,,,
2788471584,2.3496933,48.8397950,Karl Marc John,,,
2788471590,2.3498433,48.8398764,Le 137,,,
2788471614,2.3497672,48.8406276,Pacific Prêt-à-porter féminin,,,
2788471641,2.3495482,48.8413277,Sherpa,,,
2788471643,2.3495532,48.8413700,Kin,,,
2788471649,2.3495957,48.8417122,Chromatic,,,
2788471650,2.3497618,48.8417363,Nina Kendosa,,,
2788471660,2.3498193,48.8420128,Accessorie's,,,
2788471670,2.3498354,48.8423832,Chromatic,,,
2788471675,2.3496500,48.8425532,Phil Defer,,,
2788471679,2.3496145,48.8427069,Ultra Orange,,,
2792128328,2.2794770,48.8801150,Ventilo,,,Rue de Chartres
2792146018,2.2800380,48.8814880,Acanthe,,,
2800841612,2.3368273,48.8527746,Father & Sons,,,
2803415002,2.2867492,48.8012554,,,,
2804975263,2.2892167,48.8002299,Segnorita,,,
2804975266,2.2893172,48.8001782,Pourquoi Pas !,,,
2805709795,2.2874543,48.8009774,Luz in the Sky,,,
2806710510,2.3253904,48.8686022,MinaPoe,,,
2806711691,2.3250747,48.8688448,Anna Marchetti,,,Rue du Chevalier de Saint-George
2811487002,2.2119743,48.8631884,Corolles Lingerie,Tu-Sa 10:00-19:30; Su 9:30-13:30,,
2818180645,2.2377101,48.8806195,Hype Square,,,Rue Jean Jaurès
2819491391,2.3849161,48.8110382,Pooupies Valley,,,Promenée Marat
2822380201,2.3331780,48.8735310,Un Deux Trois,Mo-Sa 10:00-20:00,,Rue de la Chaussée d'Antin
2822386501,2.3331350,48.8736550,Edelweiss,,,
2822387801,2.3331080,48.8736940,Etam,,,
2822396903,2.3323760,48.8747750,Madlyne,,,
2822398801,2.3329550,48.8740340,Tab,,,
2822399501,2.3329070,48.8741500,Orchestra,,,
2822399502,2.3324460,48.8752000,Sergent Major,,,
2822409301,2.3327430,48.8745140,Bréal,,,
2822409302,2.3327240,48.8745910,Caprices d'Antin,Mo-Fr 10:00-19:15  Su 11:00-19:00,,
2822409303,2.3326630,48.8746800,Stradivarius,,,
2822411001,2.3324960,48.8745390,Catherine Gérard,,,
2822412701,2.3324100,48.8746710,Morgan,,,
2822414001,2.3326600,48.8747110,Eurodif,,,
2822415601,2.3323490,48.8748210,Calzedonia,,,
2822419201,2.3323270,48.8749340,Sinéquanone,Mo-Sa 10:00-19:00,,
2822422201,2.3325130,48.8750470,Shirley,,,
2822422202,2.3319680,48.8757030,Lola Jones,Mo-Sa 10:30-19:30,,
2822422301,2.3322550,48.8750430,Maracamicie,,,
2822427604,2.3320250,48.8755210,Valege,,http://valege.com/fr/,Rue de la Chaussée d'Antin
2822427802,2.3321100,48.8753660,Antonelle,Mo-Sa 10:00-19:00,,
2822427803,2.3320600,48.8754670,Narda,,,
2822439601,2.3320460,48.8761090,Shangaï,,,
2822440401,2.3318320,48.8760010,Reality Pear,,,
2823142401,2.2862640,48.8806770,Cardinali,,,
2823186502,2.2871900,48.8800660,Golfino,,,
2823197501,2.2874180,48.8804030,Le Chameau,,,
2823221501,2.2887410,48.8801010,Tape à l'Œil,,,
2823258301,2.2887280,48.8818500,Maison de la Danse,,,
2823331682,2.2885359,48.8035168,Lola & Co,,,
2826089401,2.3269980,48.8761520,Okaïdi,Mo-Sa 10:00-20:00,,
2826860413,2.3750355,48.8897095,Valege,,,
2843829819,2.4331708,48.8486333,Rêves et Calins,Tu-Fr 10:30-17:30,,
2849884002,2.3552016,48.8586035,The Kooples,,,
2853192001,2.2915330,48.8768990,Fraza,,,
2853245501,2.2910970,48.8778000,Good Deal,,,
2853762741,2.3285680,48.8752402,Jaqk  Boutique ephemere,Mo-Fr 09:00-17:00,https://www.jaqk-store.com/en/module/stblog/91_caumartin.html,Rue de Caumartin
2868851913,2.3283880,48.8755252,Kayen,,,Rue de Caumartin
2874225101,2.2854760,48.8814990,OF,,,
2874225504,2.2853290,48.8812150,Les Repentis,,,
2889725652,2.4378274,48.8480334,Rony Prix,Tu-Th 15:00-19:00  We Th 10:00-13:30; Tu 09:30-13:30; Fr 09:30-19:00; Sa 10:00-19:00; Su 09:30-13:00,,
2889725654,2.4377426,48.8480403,Stocks à Tous Prix,,,
2889780997,2.3728567,48.8812744,Tendance secret,,,
2889788628,2.3724544,48.8814481,Bel Air,,,
2889836413,2.3715411,48.8818432,Sultana,,,
2889908909,2.3710087,48.8820743,Le Coin des Marques,,,
2889919021,2.3724262,48.8817219,Du Pareil au Même,,,
2889949346,2.3713597,48.8821919,Karl Marc John,,,
2889977708,2.3707720,48.8824501,Generation Z Enfant,,,
2895938101,2.3223590,48.8596380,Tartine et Chocolat,,,
2897724850,2.3268506,48.8271599,Christine Laure,,,
2897724851,2.3267667,48.8269844,Devernois,,,
2897724856,2.3267947,48.8270429,Valege,,,
2897724858,2.3268945,48.8272517,Maison 123,,,
2899885794,2.3263251,48.8722357,Café Coton,,,
2899885799,2.3251060,48.8712432,Saint-James Madeleine,,,
2906424123,2.3836449,48.8758262,Boutique Chez Papa,,,
2908239605,2.3861435,48.8744200,Belair,,,
2912780871,2.3858360,48.8329051,Boardriders,Mo-Sa 11:00-21:00,,
2913183903,2.3836247,48.8744277,La Cour des Miracles,,,
2913188963,2.3849014,48.8740672,À Nous les Marques,,,
2913193878,2.3853249,48.8740370,Place des Marques,,,
2914625158,2.3733150,48.8551253,Adöm,,,
2914625159,2.3734840,48.8550106,Adöm,,,
2916514685,2.3723518,48.8802559,Rien que des marques,,,
2916553739,2.3727689,48.8808600,Degrif des stocks,,,
2916562354,2.3728252,48.8809376,Degrif des stocks,,,
2919340001,2.3668700,48.8533380,The Kooples,Tu-Fr 10:00-19:30  Mo 11:00-19:00  Sa 10:30-20:00,,
2921136401,2.3822480,48.8857593,RG pret a porter,,,
2924679919,2.4508302,48.9199943,Mod' Only,,,
2927786634,2.3718326,48.8892802,Yalouna Boutique,Tu-Sa 10:00-13:00 14:00-19:30,,
2927795615,2.3405494,48.8850392,La Boulangerie,Mo-Su 11:00-19:00,,
2927795617,2.3403292,48.8848938,Mademoiselle Bambû,,,
2927795618,2.3403378,48.8848275,Mademoiselle Montmartre,,,
2927795624,2.3398446,48.8846253,Cine Machine,Mo-Sa 12:00-20:00  Su 13:00-20:00,,
2931002314,2.4472154,48.9220061,,,,
2931002373,2.4468104,48.9220396,Lollipop,,,
2931902781,2.3873511,48.8750219,Pollen,,,
2932762702,2.2904890,48.8910660,Du Pareil au Même,Mo-Sa 10:00-19:00,,
2932766501,2.2903260,48.8910020,,,,
2932767201,2.2903700,48.8910370,Galitha,,,
2932769790,2.3328025,48.8536535,Emporio Armani,,,Rue de Rennes
2932773601,2.2904480,48.8912280,Burton of London,,,
2934428701,2.3045410,48.8831970,Ludmila Création,,,
2935106242,2.3011426,48.8491678,,,,
2935106308,2.3009878,48.8497032,Padd,,,
2937835913,2.4459743,48.9223714,Uranium Store,,,
2939320847,2.4390411,48.9272415,L'Entrepôt des Marques,,,
2954941426,2.2851585,48.8590637,Lagonda,Tu-Fr 10:00-19:00  Sa 10:30-19:00,,
2954942270,2.2847978,48.8591114,Laurence Tavernier,Mo-Sa 10:30-19:00,,
2954950534,2.2847710,48.8590769,Di-Castri,Mo-Sa 10:30-19:00,,
2957831730,2.3714050,48.8773434,Marie France Pret a porter,,,
2962991319,2.3652941,48.8845417,Jack Boutique,,,
2963122011,2.3859062,48.8743001,Sandrell,,,
2963136937,2.3864721,48.8745687,Mes Dessus Dessous,,,
2963139734,2.3865412,48.8745951,Eliote 105,,,
2963213394,2.3906503,48.8755191,Tout le Monde en parle...,,,
2963227860,2.3916380,48.8755424,Love,,,
2973439956,2.3809908,48.8831248,Discount des Marques,,,
2973464515,2.3807373,48.8839167,Florentin,Tu-Sa 10:00-19:15,,
2973473067,2.3797134,48.8845213,Madison,,,
2980014523,2.3558059,48.8591956,Archivio,,,
2980014528,2.3555093,48.8589187,Roganel,Tu-Sa 10:30-19:30  Mo 13:00-19:00,,
2981348711,2.3302021,48.8313441,Jacadi,Mo-Sa 10:00-19:00,,
2981458874,2.3524652,48.8575268,KN'L,,,
2981481777,2.3526313,48.8580429,Free'P'Star,,,
2981481782,2.3527344,48.8580053,Blue garage,,,
2991182917,2.3841173,48.8839427,Boutique Meynadier Street,,,
2996094032,2.3295497,48.8340751,Triangle,Mo-Su,,Rue Daguerre
3021147464,2.3885464,48.8747022,Concept Urbain,Tu-Sa 11:00-19:00,https://leconcepturbain.com/,
3021147465,2.3886285,48.8747263,Anne Ar Breiz,,,Rue de Belleville
3021188354,2.3752653,48.8557272,Comptoir du Désert,,,
3022931563,2.3905205,48.8753523,Box Bazar,,,
3022963223,2.3914811,48.8753691,Lise France,,,
3032588533,2.3556560,48.8575260,Les Dessous d'Apollon,Mo-Sa 11:00-20:00; Su 14:00-20:00,https://www.inderwear.com/,Rue de Moussy
3054262974,2.3715647,48.8737700,Sadio Bee,,,
3054263457,2.3715090,48.8738414,,,,
3057535237,2.4365222,48.9281132,Looks,,,
3062780472,2.2271178,48.8702892,Wanted,,,
3071648040,2.2943178,48.8450522,Zapa,,,Rue du Commerce
3071648043,2.2943588,48.8450927,Mellow Yellow,,,Rue du Commerce
3071648045,2.2940329,48.8450247,Z Génération,,,Rue du Commerce
3071648046,2.2940959,48.8450892,1 2 3,,,Rue du Commerce
3074568966,2.2397178,48.8822872,Sergent Major,Mo-Sa 09:30-19:00  Su 09:30-13:00,,Rue Jean Jaurès
3074568968,2.2394235,48.8820347,Elysa,Mo 11:00-19:00  Tu-Sa 10:00-19:30  Su 10:00-13:00,,Rue Jean Jaurès
3074568969,2.2394607,48.8820812,Foujita,,,Rue Jean Jaurès
3074568972,2.2394308,48.8822614,Camaïeu,,,Rue Jean Jaurès
3074568974,2.2391105,48.8819935,Shana b.,,,Rue Jean Jaurès
3078320828,2.2945015,48.8452578,Courbettes et Galipettes,,,Rue du Commerce
3078320829,2.2945364,48.8453002,Princesse tam.tam,,,Rue du Commerce
3078320830,2.2945820,48.8453567,Mensch,,,Rue du Commerce
3078320832,2.2946866,48.8454696,Degrif Des Stocks,,,Rue du Commerce
3078321233,2.2940643,48.8447627,Rudolph,,,Rue du Commerce
3078321235,2.2939024,48.8445732,Dim,,,Rue du Commerce
3078321237,2.2942537,48.8452810,Etam,,,Rue du Commerce
3084672239,2.2935255,48.8444305,Sud Express,,,Rue du Commerce
3084672240,2.2934919,48.8443917,Liu,,,Rue du Commerce
3084672242,2.2934289,48.8443105,Takara,,,Rue du Commerce
3084715700,2.2934455,48.8440437,Somewhere,,,Rue du Commerce
3084715704,2.2932939,48.8438716,Carline's,,,Rue du Commerce
3084715706,2.2932362,48.8437983,Côte Anglaise,,,Rue du Commerce
3084715707,2.2932014,48.8437586,Ocho,,,Rue du Commerce
3084715709,2.2932657,48.8441363,Harding,,,Rue du Commerce
3085086582,2.3464246,48.8526747,Coton Doux,,,
3085910048,2.2943824,48.8454277,Shana,,,Rue du Commerce
3086007742,2.2945588,48.8456296,La Jeanerie,,,Rue du Commerce
3087760723,2.2118180,48.8620550,Les Dessous d'Elle,,,
3089622770,2.3644973,48.8730158,Tangara le Club,Mo-Sa 10:00-19:00  PH 10:30-18:00,,
3089649887,2.3650532,48.8723143,Jerem,,,
3099976484,2.3986110,48.8498314,Hannael,,,Boulevard de Charonne
3099976486,2.3986628,48.8496681,Cuirs et fourrures du front de Seine,,,Boulevard de Charonne
3100389706,2.4357514,48.9284191,Desi Diva,,,
3102977095,2.3577353,48.8256701,À Nous les Marques,,https://www.pagesjaunes.fr/pros/51555389,
3103408736,2.3785740,48.8907086,Patricia,,,
3103408836,2.3778759,48.8910778,Carole,,,
3103408929,2.3806072,48.8896955,Le salon de marriage,,,
3109761329,2.2885870,48.8797560,Milord Men,,,
3109774732,2.2904810,48.8793100,Marco Serussi,,,
3109779335,2.2897650,48.8794950,Anthony Garçon,,,
3134043629,2.3188237,48.9332016,C&A,Mo-Sa 09:30-20:00; Su 10:00-19:00,https://www.c-and-a.com/fr/fr/shop/index.html,
3134043630,2.3187476,48.9329649,La Halle,Mo 09:30-20:00 - Su 10:00-19:00,https://www.lahalle.com/,
3141296190,2.4179372,48.8460352,Crinoline,,,
3141296197,2.4190909,48.8465172,Les Heures...,,,
3141296205,2.4194299,48.8465120,Paris Discount,Mo Tu Fr Sa 10:00-19:00; We Th 10:00-14:00 15:00-19:00; Su 10:30-14:00 15:00-19:00,,
3142576529,2.4217151,48.8459290,Casque House,,,
3149325728,2.4220392,48.8462453,Julémie,,,
3149342930,2.4217099,48.8462763,Les Modeuses,,,
3166666084,2.3736054,48.8812970,Camaïeu,Mo-Sa 10:00-19:30,,
3168844596,2.3304519,48.8711525,Claudie Pierlot,Mo 12:00-19:30; Tu-Sa 11:00-19:30,,
3176697766,2.3173892,48.8472156,Galerie Pégah,,,Rue de Sèvres
3176697768,2.3175748,48.8472798,Camaïeu,,,Rue de Sèvres
3179596601,2.3179772,48.8472178,Gerlane,,,
3179596605,2.3175358,48.8470667,Laura Sokol,,,
3179596610,2.3187575,48.8475250,Place des Marques,,,
3180887762,2.3565166,48.8656830,Paul & Bertine,,,
3181233572,2.3750382,48.8556644,Comptoir du Désert,,,
3195193741,2.3674446,48.8612872,Sœur,Mo-Sa 10:30-19:00,http://www.soeur-online.fr,
3195205070,2.3674679,48.8612520,Edition MR,,,
3195384772,2.3653795,48.8643080,L'Habibliothèque,,,
3195656084,2.3673403,48.8617495,Maison Kitsuné,Mo-Sa 10:30-19:30; Su 11:00-18:30,,
3199895764,2.3661862,48.8635143,BIS Boutique Solidaire,Tu-Sa 10:00-19:00,,Boulevard du Temple
3201552751,2.3668800,48.8612993,APC,,,
3201726202,2.3674098,48.8615665,One Culture,,https://www.one-culture.com,
3202059845,2.3683462,48.8631360,Onze,,,
3203195776,2.3662302,48.8647141,City-Troc,,,
3204635278,2.3638289,48.8614936,Comptoir des Cotonniers,,,
3205798467,2.3663352,48.8621500,Palmaccio,,www.Palmaccio.com,
3205799457,2.3661069,48.8620614,Céline Soria,Mo-Fr 9:30-18:00; Fr 9:30-16:00,,
3205800660,2.3659873,48.8620045,Bonne Gueule,Tu-Sa 11:00-19:00,https://www.bonnegueule.fr/,
3205806690,2.3631087,48.8616083,Helmut Lang,,,
3205806796,2.3629858,48.8616088,Swildens,,https://www.swildens.fr/,
3205835631,2.3440189,48.8634651,Agnès B,Mo-Fr 10:30-19:30; Sa 10:30-20:00,,
3205836112,2.3443212,48.8636125,Marie Sixtine,,https://www.marie-sixtine.com/,
3205836318,2.3444084,48.8636610,Pop d'Api,,,
3205841272,2.3444943,48.8637078,Antoine et Lili,,,
3205841772,2.3447604,48.8637283,Agnès B layette,,,
3205846652,2.3452796,48.8640960,Anne Élisabeth,,,
3205848541,2.3454817,48.8638778,Princesse Tam-Tam,Mo-Sa 10:00-19:00,,
3205849350,2.3453973,48.8640573,Manoush,,,
3205849647,2.3455186,48.8638375,Les Petites,,,
3205851398,2.3455718,48.8637465,Le Coq Sportif,,,Rue Montmartre
3205884569,2.3610996,48.8600092,La Fée Maraboutée,,,
3207289169,2.3676463,48.8604810,Edwin,,,
3207402948,2.3651859,48.8661933,Tout Pour Moi,,,
3207489441,2.3674015,48.8640585,Les Petits Bla-blas,,,
3209203713,2.3654938,48.8619198,Hircus,,,
3209214076,2.3652467,48.8618199,Mini Mialy,,,
3209218239,2.3649477,48.8616917,Harmony,,,
3209219964,2.3647665,48.8616066,Sam Daniel,,,
3209257975,2.3654377,48.8601746,Johann,,,
3210973641,2.3641073,48.8582962,Zandoli,,,
3212575999,2.3670754,48.8604697,Sandro,Mo-Sa 10:30-19:30,,
3212577589,2.3672467,48.8598434,Leon & Harper,,,
3213799711,2.3648843,48.8619123,Mike Paul,,,
3215687083,2.3659301,48.8650071,Bedo,Mo-Fr 10:00-13:00+ 14:00-19:00+  Su 14:00-19:00,,
3215697109,2.3645374,48.8632663,,,,
3215701665,2.3645243,48.8628954,RoyalCheese,Mo-Sa 11:00-20:00; Su 14:00-19:00,,
3215704293,2.3640863,48.8618168,Le Slip Français,,,
3215704301,2.3640810,48.8616335,ie,,,
3215705228,2.3639904,48.8615772,La Panoplie,,,
3217214941,2.3679734,48.8592056,The North Face,Mo 14:00-19:30; Tu-Sa 10:30-19:30,,
3217264668,2.3676945,48.8579697,L'Air du Bain,,,
3218618690,2.3668161,48.8639208,Atelier Amelot,,,
3218792644,2.3687871,48.8633149,Kate Mack,,,
3219902197,2.3549373,48.8608167,Chez Dentelles,,,
3220825544,2.2581984,48.8845428,Neuilly Cashmere,,,
3221910039,2.2395178,48.8825502,Murphy,Tu-Sa 10:00-19:30  Mo 12:00-19:30  Su 10:00-13:00,,
3223358720,2.3413564,48.8486325,Oli & Joy,,,
3223358722,2.3411822,48.8483302,Princesse Tamtam,,,
3226125528,2.3606156,48.8634028,Express Your Tee,Mo-Fr 10:00-19:00;Sa 13:00-19:00,http://www.expressyourtee.com/,
3236174299,2.3642428,48.8665116,Sergent Major,,www.sergent-major.com,
3244481937,2.3555002,48.8303570,Tie Rack,Mo-Sa 10:00-20:00; Th 10:00-21:00,https://www.tie-rack.fr/,
3244481938,2.3232862,48.8429696,Tie Rack,Mo-Sa 09:30-19:30; Th-Fr 09:00-19:30,https://www.tie-rack.fr/,
3244481939,2.3424070,48.8514176,Tie Rack,Mo-Sa 10:00-20:00,https://www.tie-rack.fr/,
3248769583,2.3329148,48.8415404,Vente de Doris,,,
3266967071,2.3615561,48.8646491,The Broken Arm,Tu-Sa 11:00-19:00,http://the-broken-arm.com/,
3278399850,2.2948220,48.8456341,Liu.Jo,,,Rue du Commerce
3278399851,2.2948729,48.8456932,Libertie,,,Rue du Commerce
3278399854,2.2949976,48.8458327,Du Pareil au Même,Mo-Sa 10:00-19:00,,Rue du Commerce
3278399855,2.2950432,48.8458927,Sport 2000,,,Rue du Commerce
3278399857,2.2951470,48.8460113,Devernois,,,Rue du Commerce
3282330111,2.3289833,48.8306649,Pimkie,,https://www.pimkie.fr/,
3282330162,2.3290930,48.8307874,Sephora,,https://www.sephora.fr/,
3282330165,2.3285117,48.8300872,Etam,,https://www.etam.com/,
3282330166,2.3307894,48.8327373,Zara,,https://www.zara.com/,
3282330167,2.3308913,48.8328560,Maje,,,
3282330168,2.3306661,48.8325937,Petit Bateau,,https://www.petit-bateau.fr/,
3282330169,2.3309936,48.8329751,Naf Naf,,https://www.nafnaf.com/,
3282425763,2.3303548,48.8322248,Armand Thiery,,https://www.bata.fr/,
3283123780,2.3625292,48.8082753,Galerie Bicêtre,,,
3293288637,2.3503531,48.8618535,Kaporal 5,,,
3306561675,2.3544180,48.8569300,Sunshine,,,
3306562263,2.3544941,48.8574666,Coton Doux,,,
3307874861,2.3331289,48.8724307,Manoukian,,,
3307941163,2.3567961,48.8598895,Dunes Blanches,,,
3307941261,2.3565222,48.8595053,La Compagnie des Hommes,,,
3311590817,2.3672962,48.8619338,Serge Blanco,,,
3323200222,2.3375401,48.8713483,Evolution,,,
3323363849,2.3306417,48.8441132,ArmorLux,Mo-Sa 10:00-19:00,,Rue Vavin
3349813008,2.2620110,48.7805050,Nathines,Mo-Sa 10:30-13:00  15:00-19:30,,Grande Rue
3356939230,2.2861588,48.8471149,Mistigriff,10:30-19:30,https://www.mistigriff.fr/,Rue Saint-Charles
3358721704,2.3842124,48.8674195,Eleven Street,,,
3358726805,2.3837361,48.8672941,Flavie,,,
3359610326,2.3649843,48.8622993,La Squadra,,,
3359610328,2.3657313,48.8627035,DANYBERD,,,Rue des Filles du Calvaire
3359610329,2.3658873,48.8627704,Frank Arnault,,,
3371353935,2.3252271,48.8285091,Calzedonia,,,
3377536376,2.3670332,48.8606628,Ami,,,
3378051703,2.3628832,48.8616274,Oxyde,,,
3378051715,2.3607832,48.8612437,MR,,,
3378052018,2.3639972,48.8617778,Élévation,,,
3378052029,2.3617718,48.8616452,Sonia Rykiel,,,
3378053605,2.3624300,48.8615705,K.way,,,
3378053616,2.3607691,48.8614222,Electic,,,
3387741294,2.3496711,48.8638644,Bonobo,,,
3387953481,2.3795015,48.8726783,Chez Alex - Chinois,,,
3389348193,2.3497420,48.8586117,Besides Kimchi,,,
3389495359,2.3651039,48.8649642,Nice Piece,,,
3391648471,2.3301459,48.8713078,Exaltation,Mo-Sa 10:30-19:30,https://www.exaltation.fr/,
3392601242,2.3643277,48.8630556,13 bonaparte,,,
3392601250,2.3624614,48.8663142,The Alphabet,,,
3396586047,2.3443524,48.8601223,U,,,
3396907068,2.3624783,48.8616828,Lemaire,,,
3396913309,2.3626790,48.8616507,Royalcheese,,https://www.royalcheese.com/,
3396913311,2.3632685,48.8612040,APC,,,
3396914190,2.3635259,48.8613270,Zadig & Voltaire,,,
3398471293,2.3559133,48.8610341,Atsuko Matano,Tu-Sa 11:00-19:00,,
3401358189,2.3296227,48.8306772,Hasting,,,
3405072649,2.3432934,48.8602426,Caroll,,,
3405072652,2.3449946,48.8594053,Bershka,,,
3405072653,2.3458692,48.8594173,H&M,Mo-Su PH 10:00-20:00,,
3405072655,2.3477855,48.8588280,Gap,,,
3405082964,2.3558454,48.8582100,Diesel,,,
3405085302,2.3421884,48.8605993,Mango,,,
3405085303,2.3419787,48.8606735,Urban Outfitters,,,
3405085306,2.3431193,48.8602970,Blue Garage,,,
3405085307,2.3436021,48.8601468,Quiksilver,,,
3405085309,2.3448512,48.8594621,Pull&Bear,,,
3405085310,2.3452494,48.8593434,Naf Naf,,,
3405085312,2.3466863,48.8591529,Promod,,,
3405085314,2.3493156,48.8583144,H&M,,,
3405085315,2.3495582,48.8582338,Zara,,,
3405085316,2.3497990,48.8578588,Zgeneration,,,Rue de Rivoli
3405085317,2.3503770,48.8579740,Mango,,,
3405085318,2.3505476,48.8578940,Intimissimi,,,
3405085320,2.3507896,48.8578345,Etam,,,
3405085787,2.3513370,48.8576900,Oysho,,,
3405085792,2.3578871,48.8578304,Dinh Van,,,Rue des Rosiers
3405086595,2.3536792,48.8587827,MBM,,,
3405086793,2.3580976,48.8580520,Éric Bompard,,,
3405086794,2.3581909,48.8582984,Maje,,,
3405086796,2.3609351,48.8579221,Adolfo Domínguez,,,
3409087769,2.3262719,48.8863803,Yanis B,,,
3409087770,2.3261860,48.8857920,Sniper Shop,Mo 11:00-20:00; Tu-Sa 10:30-20:00,https://fr-fr.facebook.com/pages/Sniper-Shop/217965236596,
3409192658,2.3263541,48.8862127,Balagne,,,
3409269227,2.3265740,48.8857675,David,,,
3412381461,2.3644892,48.8611873,Massimo Boni,,,
3413913198,2.3266982,48.8854845,Black and White,,,
3413913199,2.3266719,48.8855440,Guerrisol,Mo-Su 10:30-19:30,,
3414404074,2.3268318,48.8851767,Boutique Z,,,
3414484825,2.3268841,48.8850815,Calzedonia,,http://www.calzedonia.it,
3414484827,2.3270062,48.8848081,Nary Mod,,,
3414484831,2.3271416,48.8845144,Camaïeu,Mo-Sa 10:00-19:30,https://www.camaieu.fr/Content/Stores.aspx?City=PARIS&Magasin=PARIS%20CLICHY%20,
3414962646,2.3261238,48.8867195,Gringo,,,
3414962647,2.3260675,48.8868306,Guerrisol,,http://www.guerrisol.fr/magasin/magasin-guerrisol-paris-52-avenue-de-clichy-75018-paris/,
3415081587,2.3260393,48.8868853,J. Mossis,Mo-Sa 10:00-20:00,https://www.jmossis.com/,
3415081591,2.3259361,48.8871145,Delaveine,Mo-Sa 10:00-19:00,http://www.delaveine.com/,
3415081592,2.3258811,48.8872380,Saga des Marques,Mo-Sa 10:30-19:30,,
3415083093,2.3258395,48.8873253,Sapiens,Mo-Sa 10:00-20:00,http://www.sapiens-homme.com/,
3429929360,2.3284532,48.8697715,Tommy Hilfiger,,,
3429929361,2.3294559,48.8699699,Lacoste,Mo-Sa 10:00-19:30,,
3429929362,2.3311569,48.8706620,Kiwi,,,
3429929582,2.3288011,48.8698614,Aigle,,,
3429929583,2.3295578,48.8703775,Gap,,,
3429930021,2.3304058,48.8701384,IKKS General Store,Mo-Sa 10:00-20:00  Su 10:00-20:00,http://stores.ikks.com/fr_fr/boutique/paris/ikks-general-store-paris-capucines/536c8f21e0bbafaa06e12a891a337a1c,Boulevard des Capucines
3429930093,2.3016152,48.8749898,Zadig & Voltaire,,,
3429930130,2.3330751,48.8703493,Desigual,Mo-Sa 10:00-20:00,https://www.desigual.com/fr_FR/magasins/france/paris/desigual_opera_32,
3438438499,2.3231214,48.8842100,Kit à Plaire,Tu-Sa 10:30-19:30,,
3446162129,2.3634710,48.8635822,Valentine Gauthier,,,
3455582224,2.3641680,48.8625920,Margaret Howell,,,
3457465794,2.3417083,48.8473216,Claudie Pierlot,,,
3458469941,2.3265568,48.8751267,Caroll,Mo-Sa 10:00-19:30,,
3461689395,2.3205952,48.8734032,DANYBERD,,,Boulevard Malesherbes
3461708699,2.3183721,48.8742227,Coriolan,,,
3461708894,2.3179529,48.8741516,Loding,,,
3461709494,2.3184823,48.8742399,Bruce Fields,,,
3461714093,2.3180495,48.8741681,Dégrif des Stocks,,,
3461714193,2.3181562,48.8741843,,,,
3461717193,2.3186057,48.8742640,Vicomte A.,,,
3461803993,2.3255141,48.8664684,Cadolle,,,
3462951710,2.3595721,48.8581212,Lancel,,,
3463145693,2.3572712,48.8573141,Noriem,,,
3466154933,2.1544143,48.8853799,Yamm and co,,,
3467142997,2.3449562,48.8762640,Évolution,Mo-Sa 10:00-19:30,,
3471754293,2.3498435,48.8609181,The North Face,,,
3473319091,2.3221261,48.8691323,Who are You,,,
3473319334,2.3222368,48.8693384,Anne Fontaine,,,
3475020182,2.3664618,48.8623549,Commune de Paris,,,
3475285694,2.3491997,48.8597828,Tricobel,,,
3476500602,2.3562245,48.9362685,Bléret Chemises,,,
3479786402,2.3571010,48.9382480,Franck Neil,,,
3481937044,2.3558994,48.9357399,Amal,,,
3481937059,2.3561648,48.9361252,Sergent Major,,,
3482391888,2.3546154,48.9365484,Camaïeu,,,
3482693199,2.2843390,48.8454228,Weill Stock,,,
3501273078,2.3468347,48.8628183,Timberland,Mo-Sa 10:00-20:00,,
3501719697,2.3498709,48.8711584,Afwosh,Mo-Sa 11:00-20:00,https://www.afwosh.com/,
3501719714,2.3499045,48.8712746,Did'Ho,Mo-Sa 11:00-19:30,http://www.dilengo.com/s/didho,
3501719740,2.3505275,48.8741892,Miss Victorya,Mo-Fr 10:00-20:00,,
3501719746,2.3503183,48.8734081,Poppy,Mo-Fr 11:00-19:00; Sa 12:00-19:00,https://fr-fr.facebook.com/poppystore.paris,
3505951317,2.3760308,48.9874905,C&A,,,
3505951320,2.3752361,48.9870417,La Halle,,,
3505951321,2.3750407,48.9869477,Celio,,,
3505951322,2.3748974,48.9868494,Gémo,,,
3513924945,2.3736591,48.8707512,Only Girl,,,
3525510044,2.3763346,48.8305248,H&M,Mo-Sa 10:00-20:00,,Avenue de France
3532312696,2.2769106,48.8802118,Petit Bateau,,,
3537894679,2.3297173,48.8721083,Lauren Vidal,Mo-Sa 10:30-19:30,,
3547454343,2.3493334,48.8645503,Episode,11:00-20:00,,Rue Tiquetonne
3557819495,2.3254157,48.8284317,Via Veneto,,,
3557820398,2.3249197,48.8286063,Karl Marc John,,,
3557838193,2.3262226,48.8281521,Simone Pérèle,Tu-Sa 11:30-19:30  Mo 11:00-19:30,,
3557838197,2.3250481,48.8285627,Lady's Choice,,,
3557854194,2.3251297,48.8285362,Belle Demoiselle,,,
3561190096,2.3197381,48.8302286,Miss Paris,,,
3561190098,2.3200635,48.8301046,Stock 149,,,
3561244996,2.3213970,48.8296214,Valdino,,,
3561245094,2.3213134,48.8296501,Zapa,,,
3564024300,2.3490109,48.8612513,60 Rue Saint-Denis,,,
3569638398,2.3539172,48.8664939,Saint-Martin Stock,,,
3582953193,2.3080875,48.9713593,Etam,,,
3588253794,2.3495159,48.8627359,Zoom Flight Paris,,,
3590217339,2.3638703,48.8639085,Uzo,,,
3612388597,2.3640957,48.8559828,Anna Kaszer,,,
3612390473,2.3640565,48.8559082,Swildens,,,
3612390474,2.3641687,48.8560582,Antik Batik,,,
3612390475,2.3644650,48.8563172,Comptoir des Cotonniers,,,
3615380593,2.3652852,48.8622432,Bob Carpenter,,https://www.bobcarpenter.fr/,
3620668707,2.3060936,48.8698314,Karl Lagerfeld,,,Rue Marbeuf
3621627393,2.3617803,48.8664513,Du Pareil au Même,,,
3621789393,2.3603762,48.8629951,Josia,,,
3621825293,2.3650366,48.8638493,Hold Up,,,
3621825393,2.3649705,48.8637966,Café Coton,,,
3621827393,2.3648436,48.8644392,Sprezzatura,,,
3621827609,2.3646611,48.8593560,Une Fille à Marier,,,
3621828008,2.3646617,48.8597831,Malone,,,
3621828702,2.3643850,48.8587083,Ken Claude,,,
3621831193,2.3645117,48.8636001,Loft,,,
3621845993,2.3644832,48.8616647,Woodfield,,,
3621881994,2.3646650,48.8596046,Les Habitués,,,
3621895996,2.3584437,48.8562387,LOL by Louisiane,,,Rue du Roi de Sicile
3621911695,2.3573908,48.8574365,Lacoste,,,
3621915596,2.3582642,48.8592072,Bérénice,,,
3621933838,2.3074910,48.8595464,Bennice,,,Rue de Dominique
3622259081,2.3255851,48.8454331,Calzedonia,Mo-Sa 10:30-19:30,,
3623464905,2.1821210,48.8776418,Petit-Bâteau,,,
3623542848,2.3500447,48.8385818,Hello Stock,,,
3623571212,2.3486477,48.8391424,Eun Hwa,,,
3643864801,2.3584159,48.8821919,,,,
3643891195,2.3579855,48.8814508,Indiana Fashion,,,
3643891198,2.3581519,48.8817383,Kamaran Silks,,,
3643891199,2.3582241,48.8818625,Jaipur Silk Palace,,,
3643891296,2.3579715,48.8814177,Indian Fashion,,,
3643905495,2.3581410,48.8810295,Retoucherie Ragawa Tailor,,,
3643905500,2.3580615,48.8815813,Akil,,,
3643905501,2.3580818,48.8816129,Januna Fashion,,,
3643905694,2.3583085,48.8819970,New India,,,
3643905695,2.3582866,48.8819653,Asian Fashion,,,
3643905696,2.3588244,48.8828795,Asian Sari Centre,,,
3643905698,2.3586483,48.8825671,Indian Silk Palace,,,
3643905996,2.3585964,48.8824642,Madras Silk House,,,
3649704932,2.4117482,48.8489772,R&M American Vintage,,,
3652704225,2.3590195,48.8825420,Singapore Silk Point,,,
3655344513,2.3668390,48.8614558,bonton,Mo-Sa 10:00-19:00,,Boulevard des Filles du Calvaire
3655349333,2.3667848,48.8616655,White Bird,,,
3656827226,2.3310040,48.8652799,Chantal Thomass,,,Rue Saint-Honoré
3656827227,2.3306831,48.8654512,Theory,,,
3656829308,2.3305373,48.8652652,Petit Bateau,,,
3656829309,2.3305667,48.8653318,Zadig & Voltaire,,,
3657933028,2.3239293,48.8688165,Gérard Darel,,,
3658611074,2.3659583,48.8621338,La Jolie Garde-Robe,,,
3659020747,2.3294249,48.8114478,,,,
3659020748,2.3293967,48.8113232,Camaïeu,,,
3659020749,2.3292551,48.8114457,Kaporal,,,
3659021221,2.3287023,48.8112901,Bershka,,,
3659021829,2.3290052,48.8115966,Stradivarius,,,
3659021830,2.3285977,48.8112078,H&M,,,
3659021831,2.3291625,48.8115948,Sergent Major,,,
3659114894,2.3625095,48.8693918,Kilo Time,,,
3659114982,2.3635602,48.8694133,Sauvez le Monde des Hommes,,,
3659912506,2.3650150,48.8621044,Cotton Park,,,
3659912507,2.3653891,48.8622968,Leon Flam,,,
3659948886,2.3655756,48.8623921,Delphinepariente,,,
3661407080,2.3639163,48.8617383,Oska,,,
3661408803,2.3658898,48.8625457,L'Empire du Marié,,,
3661409992,2.3659918,48.8626002,Helios for Men,,,
3662009771,2.3640784,48.8632304,Isabelle Marant,,,
3662009772,2.3643485,48.8632714,Finger in the Nose,,,
3662010834,2.3639646,48.8631208,Maje,,https://fr.maje.com,Rue de Saintonge
3662010835,2.3642898,48.8631382,Nue 19.04,,,
3663527955,2.2269723,48.8682117,Okaïdi,,,
3668350456,2.3647604,48.8624448,Sam Daniel,,,
3668354087,2.3664017,48.8631543,The Rolling Shop,,,
3668354091,2.3647613,48.8626829,Cœur d'Amour,,,
3669978406,2.3634170,48.8620730,Les Prairies de Paris,,,
3669978810,2.3633684,48.8616908,Jean Colonna,,http://www.jeancolonna.com/,
3669978984,2.3633152,48.8615978,Closed,,https://www.closed.com/,
3669978985,2.3633191,48.8618986,VSP,,,
3670340319,2.2974165,48.8737668,,,,
3670505087,2.3632004,48.8636315,,,,
3670516682,2.3636891,48.8627136,M,,,
3670517846,2.3636023,48.8626334,Gomina,,,
3670517847,2.3642445,48.8633730,April77,,,
3670517848,2.3636761,48.8637309,Moonyounghee,,,
3670519112,2.3638783,48.8628727,Pretty Box,,,
3670519113,2.3636091,48.8638566,La Boutique Extraordinaire,,,
3670745942,2.3376569,48.8854040,Recto Verso,,,
3670745943,2.3380352,48.8855818,Recto Verso,Mo-Su 10:30-20:00,,
3672098134,2.3490197,48.8623235,Cop Copine,,,
3672098186,2.3620317,48.8607353,American Vintage,,,
3677240515,2.3419764,48.8515135,H&M,,,
3679885191,2.3735424,48.8614975,Medi Mode,,,
3679885192,2.3732573,48.8616870,Farcyma,,,
3679886988,2.3736421,48.8614463,Princesse,,,
3679886989,2.3733150,48.8616471,Kigan,,,
3680769923,2.3499344,48.8639514,Cowboy Dream,,www.cowboydream.fr,
3680769924,2.3467299,48.8634522,Démocratie,Mo-Sa 11:00-19:30,,
3680774432,2.3595979,48.8627749,Ewa Lipinska,Mo-Sa 11:00-19:30,,
3680774530,2.3475470,48.8636421,Wasted,Mo-Sa 11:30-19:30,https://wasted.fr/fr/,Rue de Turbigo
3680774531,2.3483474,48.8635764,Anne Élisabeth,Mo-Sa 11:00-19:30,,
3682563025,2.3098028,48.8697729,Zadig & Voltaire,,,
3685628866,2.3618953,48.8551568,Maje,,,
3685632590,2.3628844,48.8547117,Dileme,,,
3688326422,2.3769119,48.8649769,Nana,,,
3688329052,2.3725249,48.8645917,Fabiola,,,
3691511951,2.3572306,48.8289993,MD Mode,Tu-Fr 10:30-12:00 14:30-17:30  Sa 10:30-12:00 14:00-18:30,,
3696015125,2.3604819,48.8838043,Mumbai Silk Collection,,,
3700836725,2.4364727,48.8475455,Cuir Factory,,,
3700836825,2.4361741,48.8476907,Le Bloc 18,,,
3700836925,2.4361232,48.8476954,New Fashions,Tu-Sa 13:30-19:00,,
3701328026,2.3632675,48.8670669,Camaïeu,,,
3701328126,2.3568805,48.8750839,Hasting,,,
3702649119,2.3352251,48.8734817,Des Marques et Vous,,,
3702669827,2.3332142,48.8706288,Okaïdi,Tu-Sa 10:00-19:30,https://stores.okaidi.com/fr-be/magasin/paris/paris-cv-opera/1061,
3703077203,2.3549433,48.8524637,Bamyan,,,
3704121928,2.3590503,48.8837661,Indian Designs,,,
3704121929,2.3590452,48.8836714,Nairsaab,,,
3704121931,2.3590096,48.8834816,Thirupathy,,,
3704122525,2.3590362,48.8836200,Little India,,,
3704122527,2.3589524,48.8831799,Gnannama's Silks,,,
3704122528,2.3589364,48.8831148,Sabrina,,,
3704122725,2.3589539,48.8832112,Mantaly Tex,,,
3708498888,2.3757604,48.8302481,La Bibiliothèque des Marques,Mo 12:00-19:00; Tu-Sa 10:00-19:30,,Promenade Claude Lévi-Strauss
3708580904,2.3423865,48.8836323,Dam Boutons,Tu-Sa 10:30-13:00  Mo-Sa 13:30-18:00,,
3709915464,2.3800886,48.8284668,Size-Factory,Th-Sa 10:00-19:00,,Rue Marie-Andrée Lagroua Weill-Hallé
3711097904,2.4162457,48.8798973,Nicole Lingerie,,,
3716024169,2.3415436,48.8835388,Spontini,,,
3716024171,2.3398543,48.8837335,Antoine & Lili,,,
3718487250,2.3298914,48.8700484,Harmont & Blaine,,https://www.harmontblaine.com/,
3729901575,2.4353710,48.8470804,Hasting,,,
3729901576,2.4353697,48.8470458,Jaccadi,Tu-Sa 10:00-19:00; Mo 12:00-19:00,,
3733736490,2.3066623,48.8436781,Oldfield,,,Rue Lecourbe
3734829637,2.3428127,48.8533126,Tcha Tcha,,,Rue Saint-André des Arts
3734890125,2.3424150,48.8517398,Maximilien,,,
3738028655,2.3592027,48.8573222,Vintage Désir,,,Rue des Rosiers
3738028658,2.3594345,48.8572421,Fred Perry,,,Rue des Rosiers
3738028662,2.3596309,48.8571057,Suncoo,,,Rue des Rosiers
3738028667,2.3601754,48.8568551,Kookaï,,,
3738028669,2.3603625,48.8567612,Ikks Men,Mo-Su 11:00-19:30,http://stores.ikks.com/fr_fr/boutique/paris/ikks-men-paris-rosiers/536c8f21e0bbafaa06e12a891a3ac648,
3738028671,2.3602452,48.8568207,Rene Dehry,,,
3738028672,2.3607970,48.8565547,Crea,,,
3738155790,2.3612161,48.8563438,Bel Air,,,
3738155794,2.3588413,48.8575383,Marcel et Marcel,,,Rue des Rosiers
3738155795,2.3588015,48.8575522,Sweet Pants,,,Rue des Rosiers
3738161814,2.3608587,48.8563345,Etam,,,
3738161817,2.3605375,48.8565119,Zapa,,,
3738161819,2.3603417,48.8566116,Suite.341,,,Rue des Rosiers
3738161820,2.3602633,48.8566522,Vilebrequin,,,Rue des Rosiers
3738161821,2.3601714,48.8566990,Poles,,,
3738161822,2.3600654,48.8567523,Ikks Women,Mo-Su 11:00-19:30,http://stores.ikks.com/fr_fr/boutique/paris/ikks-women-paris-rosiers/536c8f21e0bbafaa06e12a891a3a5d1f,
3738161824,2.3599924,48.8567907,El Ganso,,,
3738163227,2.3595391,48.8570510,La Boutique Ephemere du Marais,,,Rue des Rosiers
3738163229,2.3594623,48.8570812,Shana,,,Rue des Rosiers
3738163230,2.3594283,48.8570965,Lord Fools,,,Rue des Rosiers
3738163231,2.3591843,48.8572165,Planisphere,,,Rue des Rosiers
3738163234,2.3591307,48.8572491,Scalpers,,,Rue des Rosiers
3738168383,2.3588551,48.8574296,AllSaints,,,Rue des Rosiers
3738168389,2.3581121,48.8577454,The Kooples,,,Rue des Rosiers
3738168391,2.3579492,48.8579016,Scotch & Soda,,,Rue des Rosiers
3738168394,2.3581631,48.8578151,Nara Camice,,,Rue des Rosiers
3747925837,2.3257980,48.8456546,United Colors of Benetton,,,Rue de Rennes
3747940618,2.3261035,48.8459587,Naf Naf,,,
3747940758,2.3664134,48.8600393,Wooyoungmi,,http://www.wooyoungmi.com,Rue Saint-Claude
3747943225,2.3259038,48.8457622,Caroll,Mo-Sa 10:00-19:00,,
3751732830,2.3170482,48.9330552,Gémo,Mo-Sa 09:30-20:00; Su 10:00-19:00,https://www.gemo.fr/magasin/GEMO_GENNEVILLIERS_Chaussures_&_V%C3%AAtements/GEMO_2332,Avenue du Général de Gaulle
3753251564,2.4304015,48.8571329,Destock & Fripe,,,
3759479036,2.3477011,48.8626219,Valege,,,
3759491974,2.3474829,48.8626715,Bizzbee,,,
3759971943,2.1600687,48.9405031,Mod 78,Tu-Sa 10:30-12:30 14:30-19:30,,
3759983828,2.1600222,48.9402732,Jo'Ann,Tu-Sa 10:30-12:30 14:30-19:30,,
3759983836,2.1593737,48.9397907,Hexagone Paris Chic,,,
3759983837,2.1592976,48.9397381,David,,,
3759983841,2.1569477,48.9381063,Fabio Lucci,,,
3761282022,2.3075150,48.8439253,Croque-Souris,,,Rue Lecourbe
3761282023,2.3075769,48.8439457,Eden Lecourbe,,,Rue Lecourbe
3769108758,2.3532012,48.8732770,Cinemachine,Mo-Su 12:00-20:00,,
3770622891,2.3313546,48.8697256,Le Comptoir des Cotonniers,,,
3770622892,2.3312778,48.8696007,Alfred Dunhil,,,
3770622893,2.3317909,48.8695930,Massimo Dutti,,,
3770664879,2.3282891,48.8717423,Brixton,,,Rue de Caumartin
3770664880,2.3281922,48.8729071,Toscane,Mo-Sa 10:00-20:00,,
3770664992,2.3281628,48.8727027,Baloon,,,
3770664993,2.3284233,48.8728014,Armand Thiery,,,
3770702783,2.3288365,48.8729275,Izac,,,
3770704575,2.3285556,48.8731151,C&A,Mo-We Fr Sa 09:30-20:00; Th 09:30-21:00,,
3771601138,2.1551638,48.9366748,Le P'tit Dépôt,,,
3780950261,2.3058230,48.8732504,Mario Dessuti,,,
3781420270,2.1531246,48.9348313,Lattitude Cuir,,https://www.lattitudecuir.com/en/stores,Avenue de la République
3782323210,2.3241282,48.8443540,Darjeeling,,,Rue de Rennes
3785103382,2.2398373,48.8370757,Zara,,,
3785103383,2.2400844,48.8370015,Zara,,,
3785103385,2.2388428,48.8369403,Massimo Dutti,,,
3785103386,2.2399005,48.8368987,Zara,,,
3804195350,2.3046906,48.8726391,Diego,,,
3804195353,2.3043836,48.8724518,Saint-Honoré Market,Mo-Sa 10:30-19:00,http://www.saint-honore-market.com/fr/nos-boutiques/rue-de-berri/,Rue de Berri
3809308574,2.3016881,48.8712797,Lacoste,,,
3809309330,2.3019948,48.8711868,Éric Bompard,,,Avenue des Champs-Élysées
3811367165,2.2983774,48.8688979,Nicolas Villani,,,
3811446659,2.3351158,48.8734426,Bruno Saint-Hilaire,,,
3820989179,2.3316202,48.9059647,Degriff Mode,,,
3826208357,2.2916973,48.8907552,Ikks Junior,Mo 13:00-19:00; Tu-Sa 10:30-19:30; Su 10:30-13:30,http://stores.ikks.com/fr_fr/boutique/levallois-perret/ikks-junior-levallois-perret/536c8f21e0bbafaa06e12a891a2ae96a,
3826223857,2.3288248,48.8512133,Ikks Women Men,Mo 14:00-19:00; Tu-Sa 10:30-19:00,https://www.ikks.com,Rue du Cherche-Midi
3826268764,2.2824654,48.8482092,Ikks Women,Mo-Sa 10:00-21:00,https://www.ikks.com,C.C. Beaugrenelle
3826347857,2.3061043,48.9697769,IKKS Junior,Mo 13:00-19:00; Tu-Fr 10:30-19:00; Sa 10:30-19:30,http://stores.ikks.com/fr_fr/boutique/enghien-les-bains/ikks-junior-enghien-les-bains/536c8f21e0bbafaa06e12a891a4bde8e,Rue du Général de Gaulle
3826356257,2.2836010,48.8477840,IKKS Junior,Mo-Sa 09:00-20:00,https://www.ikks.com/,C.C. Beaugrenelle - Cellule 19
3826399757,2.3347686,48.8513650,Ikks Women Men,Mo-Sa 10:00-19:30,https://www.ikks.com,Rue Saint-Sulpice
3826411357,2.1799657,48.8768655,IKKS Junior,Mo 12:30-19:30; Tu-Sa 10:30-19:30,http://stores.ikks.com/fr-fr/boutique/rueil-malmaison/ikks-junior-rueil-malmaison/539e23f2453ea7a1552fedfe989c5577,Rue Hervet
3826567557,2.3708367,48.7553966,Ikks Junior,Mo-Sa 09:00-20:00,http://stores.ikks.com/fr_fr/boutique/thiais-cedex/ikks-junior-thiais-belle-epine/69e98894c4f2411ff06549110d05ef3c,C.C Belle Epine
3826603857,2.2730273,48.8832911,IKKS Junior,Mo-Sa 09:00-20:00,http://stores.ikks.com/fr_fr/boutique/neuilly-sur-seine/ikks-junior-neuilly-sur-seine/869c0ce09d172a1d5aca3ffe84962384,Avenue du Roule
3826651557,2.3256089,48.8719501,Ikks Junior,Mo 11:00-19:00; Tu-Sa 10:00-19:00,http://stores.ikks.com/fr_fr/boutique/paris/ikks-junior-paris-tronchet/183ce14ddd89637a80f5ec667f8feced,
3826674167,2.2768690,48.8585271,IKKS Junior,Mo 13:00-19:00; Tu-Sa 10:00-19:00,http://stores.ikks.com/fr_fr/boutique/paris/ikks-junior-paris-guichard/5e622f0bcee6a15ba81a3b6fc4ee64fa,Rue Guichard
3826677458,2.3312570,48.8441488,IKKS Junior,Mo 14:00-19:00; Tu-Sa 10:00-19:00,http://stores.ikks.com/fr_fr/boutique/paris/ikks-junior-paris-vavin/536c8f21e0bbafaa06e12a891a3b5446,Rue Vavin
3826721757,2.3327721,48.8527059,Ikks Junior,Mo-Sa 10:30-19:30,http://stores.ikks.com/fr_fr/boutique/paris/ikks-junior-paris-four/536c8f21e0bbafaa06e12a891a4b5ecc,
3826798669,2.3708624,48.7553883,Ikks Women,Mo 10:00-20:00; Tu-Fr 10:00-21:00; Sa 10:00-20:00,http://stores.ikks.com/fr_fr/boutique/thiais/ikks-women-thiais/017671b1730238bf634a535af03b0a80,C.C. Belle Epine
3826837158,2.3055976,48.9693707,IKKS Women,Tu-Sa 10:00-12:30  14:00-19:00,http://stores.ikks.com/fr_fr/boutique/enghien-les-bains/ikks-women-enghien/536c8f21e0bbafaa06e12a891a28f079,Rue du Général de Gaulle
3828157957,2.2913432,48.8907905,Ikks Women,Mo 13:00-19:00; Tu-Sa 10:30-19:30; Su 10:30-13:30,http://stores.ikks.com/fr_fr/boutique/levallois-perret/ikks-women-levallois-perret/536c8f21e0bbafaa06e12a891a2a9d71,
3828181457,2.2780551,48.8804403,IKKS Women,Mo 12:00-19:00; Tu-Sa 10:30-19:00,http://stores.ikks.com/fr_fr/boutique/neuilly/ikks-women-neuilly/536c8f21e0bbafaa06e12a891a2f0b4c,
3828333158,2.1795754,48.8769584,IKKS Women,Mo 12:30-19:00; Tu-Sa 10:30-19:00,https://www.ikks.com/,Rue Hervet
3828386794,2.2932392,48.8786636,IKKS Women,Mo-Sa 10:00-19:30,,
3828502404,2.3870040,48.8333174,IKKS Women Men,Mo-Sa 11:00-21:00,https://www.ikks.com/,Cours Saint-Émilion
3828544757,2.4869322,48.8374267,IKKS Men & Women,,,
3828625857,2.2396592,48.8372131,IKKS General Store,Mo-Sa 10:00-20:00,http://stores.ikks.com/fr_fr/boutique/boulogne-billancourt/ikks-general-store-boulogne-billancourt/536c8f21e0bbafaa06e12a891a51fbff,C.C. les passages de l'Hôtel de ville
3828640859,2.3427732,48.8656045,Ikks General Store,Mo-Sa 10:30-19:30,http://stores.ikks.com/fr_fr/boutique/paris/ikks-general-store-paris-le-shop/536c8f21e0bbafaa06e12a891a32b647,
3835125046,2.3319765,48.8703369,United Colors of Benetton,,,
3839355059,2.3771550,48.8566014,Bobe Kai,,,
3841554857,2.3483351,48.8618637,Levi's,Mo-Sa 10:02-19:30; Su 14:00-19:30,,
3841554957,2.3483682,48.8619306,Dr. Martens,Mo-Sa 10:30-19:30,,
3844333819,2.4112636,48.8228682,Paradis D'Griff,,,Rue de Paris
3870693484,2.4124768,48.8221096,Blue Eyes,,,
3874851619,2.3008663,48.8722928,Massimo Dutti,,,
3874851620,2.3009963,48.8722505,Petit Bateau,,,
3889206157,2.3499921,48.8633900,Hippy Market,,,
3889206158,2.3497086,48.8632409,Shangri-La,,,
3889206159,2.3496857,48.8631958,Kam House,,,
3889206257,2.3499659,48.8633139,Delaveine,,,
3889206357,2.3497665,48.8634401,Unishop,,,
3889206457,2.3497890,48.8635026,Richard Fhal,,,
3889241559,2.3507669,48.8661673,Avanez,,,
3892536584,2.2310822,48.8748316,Habits et Vous,,,
3920612561,2.3606905,48.8663904,Emmaüs Boutique,,,
3920619857,2.3604838,48.8665763,Loft Design By…,,,
3920619859,2.3610268,48.8664715,Fierman,,,
3920620057,2.3607550,48.8666344,Folie's Angel,,,
3920637161,2.3585840,48.8683357,moda.mia,,,
3920637367,2.3586716,48.8683245,Moda Mia,,,
3920665957,2.3584882,48.8683468,Moda.Mia,,,
3961750083,2.3230911,48.8841054,No Youth Control,Tu-Sa 12:00-20:00,https://noyoco.com/,
3961977755,2.3663132,48.8789100,Machicadou,We-Su 13:00-19:00,http://machicadou.com/,
3975063023,2.3513649,48.8737750,Bakker Made With Love,,https://bakkermadewithlove-shop.com/,
3975063044,2.3557426,48.8724242,Sunshine,,https://www.sunshine.fr/,
3980067627,2.3582645,48.8557552,Evolutif,,,Rue de Rivoli
3980067645,2.3454134,48.8592894,Delaveine,,,
3980084410,2.3246076,48.8662689,Strellson,,,
3980084417,2.3256660,48.8659261,9 Mètres Carrés,,,
3980096124,2.3264097,48.8656849,Harold,,,
3980096125,2.3264805,48.8656620,Philippe Plein,,,
3980096129,2.3271726,48.8654376,Chachou,,,
3980096133,2.3277297,48.8652579,Franck Namani,,,
3980173946,2.3335913,48.8633788,Galerie des Tuileries,,,
3980224351,2.3404054,48.8611812,Ciseaux d'Argent,,,
3980224352,2.3405196,48.8611450,Rives,,,
3980242961,2.3094138,48.8651930,Zuhair Murad,,,Rue François 1er
3980268295,2.3053668,48.8708822,Le 66,,,
3980268297,2.3053826,48.8709708,United Colors of Benetton,,,
3980268304,2.3031421,48.8716076,Morgan,,,
3980268308,2.3011056,48.8722348,IKKS,,,
3980334510,2.3443710,48.8598879,Pimkie,,,
3980384396,2.3511740,48.8577232,Stradivarius,,,
3980442975,2.3559376,48.8565806,Unishop,,,
3980442978,2.3559963,48.8565580,Antonelle,,,
3980442980,2.3562632,48.8565033,5e Saison,,,
3980442981,2.3563148,48.8564834,Coton Doux,,,
3980442982,2.3563522,48.8564775,See U Soon,,,
3980442983,2.3564002,48.8564588,Come On Eileen,,,
3980442989,2.3576334,48.8561661,Garrice,,,
3980442990,2.3577081,48.8561544,Paraboot,,,
3980442998,2.3588772,48.8558758,Freep Star,,,
3980443002,2.3594858,48.8557236,Evan Tralala,,,
3980456241,2.3069221,48.8665490,Dior,,,Rue François 1er
3980456242,2.3056912,48.8672571,Nina Ricci,,,Rue François 1er
3980456243,2.3055879,48.8673208,Sandro,,,Rue François 1er
3980456244,2.3053167,48.8674988,Pink,,,Rue François 1er
3980461756,2.3609512,48.8553766,Café Cotton,,,
3980462158,2.3608665,48.8553950,Tilt Vintage,,,
3980502727,2.3437454,48.8611562,RAG,,,Rue Saint-Honoré
3980502728,2.3436757,48.8611628,Pacha Boutique,,,Rue Saint-Honoré
3980702244,2.3228078,48.8684111,Paul Smith,,,
3980702245,2.3226892,48.8684390,Dolce & Gabbana,,,
3980702246,2.3227449,48.8684243,Satore,,,
3980728661,2.3333490,48.8641653,Chemins Blancs,,,Rue Saint-Honoré
3980728663,2.3322717,48.8646625,Hilio,,,
3980728664,2.3321955,48.8646884,The Kooples,,,
3980764073,2.3306089,48.8654873,Ba&sh,,,
3980764074,2.3305107,48.8655526,Khiehls,,,
3980764075,2.3304216,48.8655872,Manoush,,,
3980781109,2.3302138,48.8656961,Missoni,,,
3980781113,2.3296394,48.8659890,Richard Grand,,,
3980781114,2.3295256,48.8660364,Gérard Darel,,,
3980781116,2.3292392,48.8661846,Lucien Pellat-Finet,,,
3980791253,2.3282319,48.8666218,Fratelli Rosseti,,,Rue Saint-Honoré
3980791254,2.3278696,48.8667597,Yves Salomon,,,Rue Saint-Honoré
3980791256,2.3275242,48.8669111,Tumi,,,Rue Saint-Honoré
3980792057,2.3273949,48.8669571,,,,Rue Saint-Honoré
3980792058,2.3270301,48.8670873,Ports 1961,,,Rue Saint-Honoré
3980793467,2.3034468,48.8652949,Giorgio Armani,,,
3980793468,2.3036252,48.8653849,Escada,,,
3980793476,2.3039717,48.8655508,Prada,,,
3980793477,2.3040618,48.8655987,Loro Piana,,,
3980793488,2.3048245,48.8659747,Giorgio Armani,,,
3980793489,2.3046315,48.8659073,Manouch,,,
3980793490,2.3044773,48.8658182,Joseph,,,
3980793491,2.3043445,48.8657423,Bottega Veneta,,,
3980793492,2.3043708,48.8656707,Cesare Paccioti,,,
3980793493,2.3042614,48.8656973,Giuseppe,,,
3980793521,2.3068381,48.8675401,Versace,,,
3980793523,2.3077141,48.8680005,Fendi,,,
3980803269,2.3268748,48.8671519,Chloé,,,Rue Saint-Honoré
3980803270,2.3267920,48.8671817,Liméa Piu,,,Rue Saint-Honoré
3980803271,2.3266640,48.8672056,Devemois,,,Rue Saint-Honoré
3980803273,2.3263380,48.8673060,Morabito,,,Rue Saint-Honoré
3980803275,2.3262358,48.8673417,Dior,,,Rue Saint-Honoré
3980803276,2.3249059,48.8677510,Sandro,,,
3980803281,2.3243756,48.8679025,Valentino,,,
3980804564,2.3239254,48.8680488,Michael Kors,,,
3980826484,2.3436121,48.8613379,Starcow,,,Rue Saint-Honoré
3980826485,2.3435121,48.8613586,Carhartt : Work in progress,,,Rue Saint-Honoré
3980826486,2.3434478,48.8613670,Bleu de Paname,,,Rue Saint-Honoré
3980826491,2.3426565,48.8615188,N.A. Les nouveaux ateliers,Mo-Sa 11:00-20:00,,Rue Saint-Honoré
3980826502,2.3407924,48.8619087,TheVest,,,Rue Saint-Honoré
3980826508,2.3403089,48.8620003,Noëlle and Co,,,Rue Saint-Honoré
3980826527,2.3335611,48.8642450,Shiatzy Chen,,,Rue Saint-Honoré
3980826530,2.3333412,48.8643526,L'Équipe Anglaise,,,Rue Saint-Honoré
3980826533,2.3331883,48.8644285,Nodus,,,Rue Saint-Honoré
3980826538,2.3325285,48.8647831,Codélac,,,Rue Saint-Honoré
3980826548,2.3313859,48.8653001,Stone Island,,,Rue Saint-Honoré
3980826550,2.3312357,48.8654236,Bon Point,,,Rue Saint-Honoré
3980826555,2.3305222,48.8657624,Exemplaire,,,
3980828257,2.3302513,48.8659265,Balenciaga,,,Rue Saint-Honoré
3980828258,2.3300233,48.8660006,Comptoirs des Cotonniers,,,Rue Saint-Honoré
3980828262,2.3298543,48.8661135,Lyubov,,,Rue Saint-Honoré
3980828264,2.3296210,48.8662582,Baldinini,,,
3980828270,2.3291301,48.8664876,Avedis,,,Rue Saint-Honoré
3980828274,2.3280036,48.8669693,Alexis,,,Rue Saint-Honoré
3980828275,2.3276522,48.8670839,Zimmerli of Switzerland,,,Rue Saint-Honoré
3980828276,2.3275878,48.8671228,Miki House,,,
3980828277,2.3274242,48.8671792,Emporio Armani,,,
3980828278,2.3270675,48.8672921,Alexandre McQueen,,,Rue Saint-Honoré
3980828279,2.3269817,48.8673221,Coach,,,Rue Saint-Honoré
3980828280,2.3267242,48.8673839,Zara,,,Rue Saint-Honoré
3980828281,2.3265579,48.8674368,Brioni,,,Rue Saint-Honoré
3980828283,2.3263809,48.8675056,Tom Ford,,,Rue Saint-Honoré
3980828284,2.3261582,48.8675515,Barrie,,,Rue Saint-Honoré
3980828286,2.3255896,48.8677050,John Baliann,,,Rue Saint-Honoré
3980828287,2.3254609,48.8677615,Hervé Chapelier,,,Rue Saint-Honoré
3980828289,2.3251578,48.8678497,Anne Fontaine,,,
3980828291,2.3250344,48.8679114,Tara Jarmon,,,
3980828292,2.3247769,48.8679732,Longchamp,,,
3980828293,2.3245341,48.8680600,Max Mara,,,
3980828294,2.3244623,48.8680842,Tory Burch,,,
3980828296,2.3241439,48.8682096,Lyubov,,,
3980828298,2.3239400,48.8682625,Leetha,,,
3981404276,2.3070619,48.8671361,Loro Piana,,,Avenue Montaigne
3981406857,2.3053141,48.8662323,LVMH,,,Avenue Montaigne
3981406858,2.3061532,48.8666640,Christian Dior,,,
3981411856,2.3067207,48.8666617,Dior,,,Rue François 1er
3981413158,2.3056992,48.8667197,Dior,,,Rue François 1er
3981422558,2.3027737,48.8709300,Longchamp,,,Avenue des Champs-Élysées
3981531079,2.3045332,48.8682721,Torregiani,,,Rue François 1er
3981531082,2.3040382,48.8685919,Balmain,,,Rue François 1er
3981531084,2.3036050,48.8688575,Zilli,,,Rue François 1er
3981531085,2.3034843,48.8689545,Tom Ford,,,Rue François 1er
3981531087,2.3033302,48.8690246,Karadonna,,,Rue François 1er
3981531090,2.3026758,48.8694374,Angels,,,Rue François 1er
3981588785,2.3022396,48.8693957,Dormeuil,,,Rue François 1er
3981588786,2.3023389,48.8693451,John Lobb,,,Rue François 1er
3991869872,2.3079089,48.8675879,Chloé Montaigne,,,
3991869875,2.3087132,48.8679893,Dolce & Gabbana,,,
3991869876,2.3114547,48.8727231,Emmanuel Barg,,,
3991869879,2.3092954,48.8682888,Gucci - Paris Montaigne,,,
3991869880,2.3082207,48.8677391,Gucci,,,
3991869886,2.3108651,48.8726374,Jean-Louis Sherrer,,,
3991869887,2.3088853,48.8680834,Jil Sander,,,
3991869895,2.3084373,48.8677949,Ralph Lauren / Barbara bui,,,
3992830917,2.3716191,48.8526760,Lee,,,
3992830924,2.3723148,48.8524160,,,,
3992830927,2.3727457,48.8522859,,,,
3992830928,2.3729691,48.8522235,Chromatic,,,
3992830933,2.3733507,48.8521129,Dim,,,
3994173690,2.3639230,48.8701252,Agnès B. Homme,Mo-Sa 11:00-19:00,,
4003965813,2.3743247,48.8518641,Bonobo,,https://www.bonoboplanet.com,Rue du Faubourg Saint-Antoine
4003965815,2.3747834,48.8517496,Princesse Tamtam,,,
4003965816,2.3748348,48.8517379,Maje,,,
4004312567,2.3751128,48.8514162,,,,
4004312572,2.3744003,48.8515908,Comptoir des Cotonniers,Mo 11:00-19:00  09:00-18:00; Tu-Sa 10:30-19:30,,Rue du Faubourg Saint-Antoine
4004312575,2.3740462,48.8516816,Darjeeling,,,
4004312576,2.3738866,48.8517270,Lacoste,,,
4004312577,2.3735787,48.8518131,Gap,,,
4004312578,2.3735157,48.8518277,Gap Baby,,,
4004312580,2.3733338,48.8518798,The Kooples,Mo 10:00-19:00  Tu-Fr 10:30-19:30  Sa 10:30-20:00,,
4004469358,2.3449329,48.8832676,L'Étoile des Marques,,,
4004469359,2.3457059,48.8834074,La Rose d'Orient,,,
4004469363,2.3451703,48.8828530,Guerrisol,,,
4010343768,2.3225075,48.8707158,Mettez,Mo-Sa 10:00-19:00,https://www.mettez.com/,Boulevard Malesherbes
4020228989,2.3183489,48.8911566,Lot Tex,Mo-Su PH 10:30-19:30,,
4025396989,2.3211990,48.8846250,Danaïde,Tu-Sa 11:00-19:00,,
4038906197,2.3453733,48.8790113,Camille et Margaux,,,
4040158155,2.3427315,48.8459518,La Route du Tibet,Mo-Sa 10:30-19:30,https://laroutedutibet.com/,
4040162389,2.3423671,48.8440099,Breizh Norway,,,
4068261693,2.3031174,48.8402151,Les Belles Idées,,,
4070085118,2.3298509,48.8523074,La Perla,,,
4070148958,2.3160612,48.8754683,,,,
4108417172,2.3065783,48.8562372,Saint-James,,http://www.saint-james.fr,Rue Cler
4108978395,2.2961046,48.8368428,Camaïeu,,,
4109457006,2.3619371,48.8654292,The Clothette,,,
4111880551,2.3469421,48.8627913,Vent du Sud,,,
4126134389,2.3207437,48.8465706,Chercheminippes Accessoires de Mode,Mo-Sa 11:00-19:00,http://chercheminippes.fr,Rue du Cherche-Midi
4126218689,2.3297612,48.8504357,Aude et Chloé,,,
4126227736,2.3298416,48.8504929,Belle Demoiselle,,,
4126621096,2.3543338,48.8526680,,,,
4129788700,2.2824936,48.8436950,Sélection Privée,,,
4140718341,2.3821084,48.8170554,Pop ma Chérie,,https://www.facebook.com/popmacheriesarl/info/?tab=page_info,Avenue Danielle Casanova
4140951962,2.4415596,48.8615466,Jules,Mo-Sa 10:00-19:30,,
4140953398,2.4418064,48.8615528,C&A,Mo-Sa 10:00-20:00,,
4146979594,2.3033181,48.8415180,Lighta,,,
4146994392,2.3037869,48.8412766,De Jour comme de Nuit,,,
4147034234,2.3005918,48.8396221,People,,,
4147061292,2.3005617,48.8396720,Happy Trend,,,
4147067396,2.3009549,48.8393339,Kacy,,,
4163075397,2.2878392,48.8643242,Gap,Mo-Su 10:00-20:00,,Avenue Kléber
4163192005,2.3272519,48.8734954,Gap,Mo-Fr 10:00-21:00; Sa 10:00-20:00,https://www.gap.eu/,
4184750836,2.3715882,48.8901955,Emmaüs Défi,,,Rue Curial
4193551098,2.3449278,48.8608816,Bruce Field,Mo-Sa 11:00-19:30,https://www.brucefield.com/en/magasins,
4193551099,2.3546779,48.8581248,Gucci,,,
4195713398,2.3471205,48.8599336,Le Vestibule,,,
4195729193,2.3472690,48.8597644,Kookaï,Mo-Sa 10:00-19:30,,
4198867789,2.3233687,48.8727747,Rives,,,
4210881789,2.3532855,48.8258665,Boutique Zen,Tu-Sa 10:30-19:00,https://www.boutiquezen.com/,
4212308689,2.3340741,48.8517909,Dandy Parisien,,,
4225181089,2.3483636,48.8333944,Carrick,Mo-Fr 10:00-13:30 14:30-18:30; Sa 10:00-13:00 14:00-18:00; Aug off; Dec 25-31 off; Jan 1 off,https://www.carrick.fr/,Rue des Cordelières
4225768106,2.3404844,48.8499514,Bourgine,,http://bourgine.net,Rue Racine
4225800689,2.3413312,48.8500601,Hollington,,https://hollington.eu,Rue Racine
4249020790,2.3525530,48.8782446,Miss Tonic,,,
4257493289,2.3618140,48.8732301,GDG,,,
4257631689,2.3572054,48.8721083,Altermundi,,,
4281614489,2.3366321,48.8528519,Kilo-Shop,,,Boulevard Saint-Germain
4292633192,2.3570633,48.8579453,Spontini,,,
4314793864,2.3386568,48.8819304,Mise en Cage - Lingerie,Tu-Sa 11:00-19:00,,
4317108014,2.3566500,48.8591050,Plus que Parfait,,https://www.facebook.com/Plus-que-parfaitd%C3%A9pot-vente-homme-151672118224649/,Rue des Blancs-Manteaux
4325093131,2.3296753,48.9228299,Quiksilver,,http://www.marquesavenue.com/L-Ile-Saint-Denis/Boutiques/Quiksilver,Quai du Châtelier
4327267299,2.4019549,48.8927873,Le Comptoir des Marques,,,Rue Hoche
4343154767,2.2460150,48.8932148,Jann's,,,
4346763191,2.4359427,48.8449885,Degriff des Stocks,Mo-Su 11:00-19:00,,
4348826843,2.2732539,48.9136158,Celio,,,
4348826844,2.2731909,48.9135656,Sergent Major,,,
4349847917,2.4147138,48.8794960,Jules,,,
4359281389,2.3695644,48.8634382,Nomad's Land,,,Rue Oberkampf
4360283107,2.3029478,48.9022071,Éram,,,
4360303797,2.3039422,48.9025885,Camaïeu,,camaieu.fr,
4364238898,2.3234392,48.8761427,Mikamarques,,,
4366473579,2.3673358,48.8270297,Brissyma,,,
4378161489,2.4558852,48.7813143,Primark,Mo-Sa 10:00-20:00,http://primark.com,Avenue de la France Libre
4382160692,2.4381385,48.8468642,Marie Sixtine,Mo-Sa 11:00-19:30,,
4382789296,2.3243023,48.8504479,Louis Vuitton Le Bon Marché,,,
4384258874,2.3718797,48.9035130,Artextyl,,http://artextyl.com/,Avenue Victor Hugo
4394533698,2.3182386,48.8014913,Lumière d'Orient,Mo-Su 10:00-19:30,,Avenue Louis Pasteur
4401653942,2.2261695,48.8697147,Mikamarques,,,
4405645638,2.2284405,48.8689170,À Demain les Filles,,,
4405645640,2.2272858,48.8686846,Annabelle,,,
4405645641,2.2270581,48.8685385,Belle Demoiselle,,,
4405645651,2.2277484,48.8694582,Kop'In,,,
4405806189,2.3567319,48.8299385,Star Asia,,,
4414439989,2.3184778,48.8867368,Balibaris,,,
4415662890,2.3762180,48.8531897,Sessùn,Mo-Sa 11:00-19:00,,Rue de Charonne
4415675409,2.3299640,48.8534912,Sessùn,Mo-Sa 10:30-19:00,,Rue des Saints-Pères
4415675410,2.3485708,48.8647070,Royalcheese Bluecheese,Mo-Fr 11:00-14:00 15:00-20:00; Sa 11:00-20:00,,
4415688297,2.3487099,48.8646884,Royalcheese,Mo-Sa 11:00-20:00,,Rue Tiquetonne
4415735890,2.3296454,48.8742771,Monki,Mo-sa 10:00-19:30,,Rue de Provence
4416040936,2.3360852,48.8639244,Brucefield,,,
4416246990,2.3723794,48.8283240,Sam's,Mo 12:00-19:30  Tu-Sa 10:30-19:30,,
4416949790,2.3641347,48.8616535,FrenchTrotters,Mo 14:00-19:00; Tu-Sa 11:30-20:00; Su 14:00-19:00,,
4416953789,2.3759204,48.8532297,FrenchTrotters,Mo 13:30-19:30; Tu-Sa 11:30-19:30,,
4420414690,2.3716667,48.8273795,Dis Moi Tout,Mo-Su 10:15-19:00,,
4420427890,2.3701985,48.8274141,Dégriffes du Monde,,,
4423223696,2.3275063,48.8733493,Best Mountain,Mo-Sa 10:00-19:30,,
4423527713,2.3455328,48.8648611,Kiliwatch,Mo 10:30-19:00; Tu-Sa 10:30-19:30,,
4424595889,2.3326076,48.9556881,Madame Shenay,,,
4437674690,2.4418242,48.8617985,Okaïdi,Mo-Sa 10:00-19:30,,
4437674691,2.4417662,48.8614282,Camaïeu,Mo-Sa 10:00-19:30,,
4445401791,2.3308907,48.8511285,Brandy Melville,Mo-Sa 11:00-19:00,http://brandymelville-france.com,
4448519354,2.3630321,48.8612785,American Apparel,Mo-Fr 11:00-20:00; Sa 10:00-20:00,,
4448519357,2.3297164,48.8524139,COS,Mo-Sa 10:00-19:30,,
4448519358,2.3253152,48.8715346,COS,Mo-Sa 10:00-20:00,,
4454449162,2.3463996,48.8813457,Mamie,Mo-Sa 11:00-13:30  15:00-20:00,,
4457878291,2.3784707,48.8272567,Little Jeanne,,,
4461829637,2.3899219,48.9011331,,,,Rue Magenta
4466916239,2.2366058,48.8796601,Stockmark,,,
4466916240,2.2376621,48.8805721,Sympa,,,
4473505454,2.3040113,48.8992052,Etam,,https://etam.com/,
4473508155,2.3039174,48.8991205,1.2.3,,http://magasins.1-2-3.fr,
4476868096,2.3577267,48.8585641,Fusalp,Tu-Sa 11:00-19:00  Su-Mo 14:00-19:00,https://www.fusalp.com/fr/,Rue des Blancs-Manteaux
4476877295,2.3582063,48.8592394,Zen Ethic,,,Rue des Francs Bourgeois
4487456590,2.3443690,48.8831412,Sim-Storesol,Mo-Fr 10:30-19:30  Sa 09:45-19:30,,
4488872473,2.4652169,48.8189007,Zone2Momes,,,
4499186322,2.2850438,48.9686497,Cache Cache,Mo-Sa 10:00-19:00; Su 10:00-13:00,,
4499186323,2.2850795,48.9687050,Folfolies,Tu-Sa 10:00-19:30; Mo 15:00-19:30; Su 10:00-13:00,,
4504680289,2.2866556,48.9684613,Mimi S.C Fashion,,,
4512320694,2.2964229,48.8477808,Gerard Darel,,,Rue du Commerce
4512320696,2.2963253,48.8476591,Jules,,,
4512920408,2.4281271,48.8034083,Claire-Foncet,9h30-12h30 // 14h-19h,https://www.claire-foncet.fr/,
4534457891,2.4008450,48.8483537,Nid d'Amour,,,
4534460791,2.4006787,48.8483694,Calzedonia,,,
4534475590,2.4004134,48.8483808,Florian,,,
4534539990,2.4004669,48.8483749,Karen Bis...,,,
4535338197,2.2925678,48.8439181,Dresscode,,,Rue des Entrepreneurs
4535342795,2.2953347,48.8462699,Petit Bateau,,,Rue du Commerce
4535378889,2.2951746,48.8463198,Kookaï,,,
4539660391,2.3414141,48.8605735,Jean Marc Philippe,,,Rue de Rivoli
4541807590,2.3050618,48.9691828,Tera Bora,,,Avenue de Ceinture
4541901818,2.3052677,48.9693373,Du Pareil au Même,Tu-Sa 10:00-19:00,,Rue du Général de Gaulle
4543362878,2.3089095,48.9718991,Cerruti,,,
4543362880,2.3093515,48.9721729,Ligne,,,Rue du Général de Gaulle
4543362881,2.3092595,48.9721091,Valenti,,,Rue du Général de Gaulle
4543558292,2.3267342,48.8726293,Weill,,,Rue Vignon
4543558295,2.3266516,48.8723060,Le comptoir du Cachemire,,,Rue Vignon
4543576091,2.3267138,48.8725602,Arthur & Fox,,,Rue Vignon
4543576200,2.3262805,48.8717847,Atout Majeur,,,Rue Vignon
4543576497,2.3267500,48.8727056,Le Bourget,,,Rue Vignon
4543577391,2.3265994,48.8721064,Willman,,,Rue Vignon
4543577394,2.3265178,48.8717820,Alessandro,,,Rue Vignon
4543577494,2.3265518,48.8719480,Nina Retouche,,,Rue Vignon
4548037095,2.4440741,48.8098621,Lulu et Zébulon,,,
4558500794,2.2032382,48.9556496,Kiabi,,,
4558500795,2.2034597,48.9556236,Etam,,,
4558500797,2.2039382,48.9555768,Orchestra,,,
4568638493,2.4736537,48.8773724,Gémo,,,
4569389607,2.3890188,48.8962607,Nina Kendosa,Mo-Su 10:00-20:00,,
4577739281,2.2523173,48.7682381,Avenue 430,,,
4582960124,2.2746319,48.8244949,Camaïeu,,,
4582960125,2.2747499,48.8245375,Jacadi,,,
4583027344,2.2687680,48.8228695,Clair de Lune,,,
4591551041,2.4069607,48.8667179,Les Biscottes,,,
4592604640,2.2727608,48.8253355,Abe's,Mo 12:00-19:00  Tu-Fr 10:00-19:00  Sa 10:00-13:00 14:30-19:00,,
4592625059,2.2774946,48.8259478,Hypothèse,,,
4604833533,2.2751370,48.8828136,Du Pareil au Même,,,
4606207780,2.1779750,48.8309053,Annie La Coquette,,,
4623635819,2.3612675,48.8618771,Springsioux,,,
4623635820,2.3608929,48.8613403,Éclectic,,,
4624377563,2.3644260,48.8713208,The Kooples,10:30-19:30,,Rue Beaurepaire
4625881791,2.3379195,48.8538120,Héroines,,,Rue de Buci
4626878893,2.3281027,48.8737966,Agent Provocateur,,,Boulevard Haussmann
4651059591,2.3510747,48.8836219,Guerrisol,,,
4682446139,2.3205792,48.8689902,Roger Vivier,,,Rue du Faubourg Saint-Honoré
4682446140,2.3229389,48.8685920,Pinko,,,
4682446141,2.3227900,48.8686343,Prada,,,
4682446144,2.3222894,48.8687862,Bottega Veneta,,,
4682446145,2.3221137,48.8688455,La Perla,,,
4682446150,2.3209285,48.8688859,Valentino,,,Rue du Faubourg Saint-Honoré
4682446154,2.3217376,48.8688993,Hermès,Mo-Fr 10:30-18:30,,Rue du Faubourg Saint-Honoré
4682446157,2.3210221,48.8690526,Jun Ashida,,,Rue du Faubourg Saint-Honoré
4682446158,2.3208825,48.8691095,Aramis,,,
4682446160,2.3205458,48.8691969,Zadig & Voltaire,,,
4682446162,2.3202873,48.8693001,Salvatore Ferragamo,,,
